[{"number":"144","name":"Clontarf Rd Pitches","address":"","position":{"lat":"53.36289418","lng":"-6.219730239"}},{"number":"149","name":"Connolly","address":"","position":{"lat":"53.35052608","lng":"-6.250694343"}},{"number":"150","name":"Amiens Street","address":"","position":{"lat":"53.35025726","lng":"-6.250750415"}},{"number":"151","name":"Connolly Train Stn","address":"","position":{"lat":"53.35049715","lng":"-6.250560334"}},{"number":"152","name":"Connolly","address":"","position":{"lat":"53.35103959","lng":"-6.250162577"}},{"number":"153","name":"Eden Quay","address":"","position":{"lat":"53.34794369","lng":"-6.25787477"}},{"number":"154","name":"Eden Quay","address":"","position":{"lat":"53.34779142","lng":"-6.25791102"}},{"number":"157","name":"Martello Tower","address":"","position":{"lat":"53.32567589","lng":"-6.207243322"}},{"number":"158","name":"Martello Tower","address":"","position":{"lat":"53.32561617","lng":"-6.207456005"}},{"number":"159","name":"Gilford Ave Junction","address":"","position":{"lat":"53.33214934","lng":"-6.210365251"}},{"number":"160","name":"Gilford Ave Junction","address":"","position":{"lat":"53.33207165","lng":"-6.210578715"}},{"number":"162","name":"Sean MacDermott Street","address":"","position":{"lat":"53.35282374","lng":"-6.257225072"}},{"number":"163","name":"Marlborough Street","address":"","position":{"lat":"53.35260728","lng":"-6.257789724"}},{"number":"165","name":"Dawson Street","address":"","position":{"lat":"53.34002045","lng":"-6.258167756"}},{"number":"166","name":"Dawson Street","address":"","position":{"lat":"53.34002746","lng":"-6.258648039"}},{"number":"167","name":"Dawson Street","address":"","position":{"lat":"53.34013437","lng":"-6.258583611"}},{"number":"168","name":"Bachelors Walk","address":"","position":{"lat":"53.34717641","lng":"-6.260729871"}},{"number":"171","name":"Schoolhouse Hotel","address":"","position":{"lat":"53.33723057","lng":"-6.239555502"}},{"number":"172","name":"Hampton Hotel","address":"","position":{"lat":"53.32629197","lng":"-6.242603177"}},{"number":"173","name":"Hampton Hotel","address":"","position":{"lat":"53.32555243","lng":"-6.241822887"}},{"number":"174","name":"Leeson St Upper","address":"","position":{"lat":"53.3296294","lng":"-6.248907051"}},{"number":"175","name":"Leeson St Upper","address":"","position":{"lat":"53.32881799","lng":"-6.24751397"}},{"number":"176","name":"Leeson St Lower","address":"","position":{"lat":"53.33547032","lng":"-6.256175849"}},{"number":"177","name":"Leeson St Lower","address":"","position":{"lat":"53.33535617","lng":"-6.2563607"}},{"number":"178","name":"Leeson St Upper","address":"","position":{"lat":"53.33119942","lng":"-6.252386203"}},{"number":"179","name":"Lwr Drumcondra Road","address":"","position":{"lat":"53.36387318","lng":"-6.257435244"}},{"number":"180","name":"Lwr Drumcondra Road","address":"","position":{"lat":"53.36297031","lng":"-6.258388668"}},{"number":"181","name":"East Wall Road","address":"","position":{"lat":"53.35079068","lng":"-6.226003017"}},{"number":"182","name":"College Green","address":"","position":{"lat":"53.34439941","lng":"-6.26136859"}},{"number":"183","name":"College Green","address":"","position":{"lat":"53.34439963","lng":"-6.261383601"}},{"number":"184","name":"College Green","address":"","position":{"lat":"53.34426249","lng":"-6.26060818"}},{"number":"185","name":"College Green","address":"","position":{"lat":"53.3442605","lng":"-6.261704666"}},{"number":"186","name":"College Green","address":"","position":{"lat":"53.34423663","lng":"-6.261300118"}},{"number":"187","name":"College Green","address":"","position":{"lat":"53.34423684","lng":"-6.261315128"}},{"number":"188","name":"College Green","address":"","position":{"lat":"53.34430106","lng":"-6.260171051"}},{"number":"190","name":"O'Connell Street (opp Gresham)","address":"","position":{"lat":"53.35177799","lng":"-6.261323651"}},{"number":"191","name":"Thomas Street","address":"","position":{"lat":"53.34347759","lng":"-6.285241171"}},{"number":"192","name":"Market Street South","address":"","position":{"lat":"53.34164803","lng":"-6.286771362"}},{"number":"193","name":"High Street","address":"","position":{"lat":"53.34298022","lng":"-6.272570278"}},{"number":"194","name":"Casino Park","address":"","position":{"lat":"53.37151275","lng":"-6.226299134"}},{"number":"195","name":"Mountjoy Sq West","address":"","position":{"lat":"53.35617782","lng":"-6.258560506"}},{"number":"196","name":"Custom House Quay","address":"","position":{"lat":"53.34824354","lng":"-6.250111877"}},{"number":"197","name":"Custom House Quay","address":"","position":{"lat":"53.34822844","lng":"-6.250307765"}},{"number":"198","name":"IFSC House","address":"","position":{"lat":"53.34825627","lng":"-6.250366708"}},{"number":"200","name":"Stop No. 135302","address":"","position":{"lat":"53.33332754","lng":"-6.254086032"}},{"number":"201","name":"Sussex Road","address":"","position":{"lat":"53.32972821","lng":"-6.248903003"}},{"number":"202","name":"Sussex Road","address":"","position":{"lat":"53.32994385","lng":"-6.249509755"}},{"number":"203","name":"North Wall Quay","address":"","position":{"lat":"53.3473503","lng":"-6.236449878"}},{"number":"204","name":"AIB OConnell Street","address":"","position":{"lat":"53.35233952","lng":"-6.261616258"}},{"number":"205","name":"North Star Hotel","address":"","position":{"lat":"53.35174614","lng":"-6.249923327"}},{"number":"207","name":"Arran Quay","address":"","position":{"lat":"53.34589785","lng":"-6.276057067"}},{"number":"208","name":"Arran Quay","address":"","position":{"lat":"53.34584027","lng":"-6.275804055"}},{"number":"209","name":"Clare Street","address":"","position":{"lat":"53.3413359","lng":"-6.251626258"}},{"number":"210","name":"North Wall Quay","address":"","position":{"lat":"53.34775307","lng":"-6.242426443"}},{"number":"211","name":"�rd Scoil R�s","address":"Griffith Avenue","position":{"lat":"53.36887682","lng":"-6.228557661"}},{"number":"212","name":"Griffith Avenue","address":"Griffith Avenue","position":{"lat":"53.36846776","lng":"-6.22764291"}},{"number":"213","name":"Merrion Square","address":"","position":{"lat":"53.34134678","lng":"-6.25052948"}},{"number":"214","name":"Stop No. 4839","address":"","position":{"lat":"53.34155096","lng":"-6.250355919"}},{"number":"215","name":"Merrion Street Lower","address":"","position":{"lat":"53.34155096","lng":"-6.250355919"}},{"number":"216","name":"Clifton Court Hotel","address":"","position":{"lat":"53.34779931","lng":"-6.258451437"}},{"number":"217","name":"John's Park","address":"","position":{"lat":"53.32648225","lng":"-6.225705657"}},{"number":"218","name":"Parnell Square North","address":"","position":{"lat":"53.35429725","lng":"-6.263970269"}},{"number":"219","name":"Westmoreland Street","address":"Westmoreland Street","position":{"lat":"53.34630773","lng":"-6.259098017"}},{"number":"220","name":"Cathal Brugha St","address":"","position":{"lat":"53.35205954","lng":"-6.260290695"}},{"number":"221","name":"Cathal Brugha Street","address":"","position":{"lat":"53.35225235","lng":"-6.259952357"}},{"number":"222","name":"Cathal Brugha Street","address":"Cathal Brugha Street","position":{"lat":"53.35200039","lng":"-6.260548478"}},{"number":"223","name":"Cathal Brugha Street","address":"Cathal Brugha Street","position":{"lat":"53.35202821","lng":"-6.260607433"}},{"number":"224","name":"O'Connell St Upper","address":"","position":{"lat":"53.35135318","lng":"-6.261160681"}},{"number":"225","name":"Stop No. 7468","address":"","position":{"lat":"53.35183694","lng":"-6.260434958"}},{"number":"226","name":"Alfie Byrne Road","address":"","position":{"lat":"53.36291727","lng":"-6.220675909"}},{"number":"227","name":"Carlisle Street","address":"South Circular Road","position":{"lat":"53.33238573","lng":"-6.270881323"}},{"number":"253","name":"St Mary's College","address":"","position":{"lat":"53.32757099","lng":"-6.264890547"}},{"number":"254","name":"St Mary's College","address":"","position":{"lat":"53.32721804","lng":"-6.264724711"}},{"number":"255","name":"South Richmond St","address":"Richmond Street Sth","position":{"lat":"53.3311236","lng":"-6.264431045"}},{"number":"256","name":"South Richmond St","address":"Richmond Street Sth","position":{"lat":"53.33103618","lng":"-6.264599755"}},{"number":"260","name":"Military Road","address":"Lower Rathmines Road","position":{"lat":"53.3265476","lng":"-6.264977117"}},{"number":"261","name":"Rathmines","address":"Lower Rathmines Road","position":{"lat":"53.32513839","lng":"-6.265109364"}},{"number":"263","name":"Rathmines Rd Lower","address":"Lower Rathmines Road","position":{"lat":"53.32929965","lng":"-6.264475065"}},{"number":"264","name":"Earlsfort Terrace","address":"Earlsfort Terrace","position":{"lat":"53.33548151","lng":"-6.25755688"}},{"number":"265","name":"Adelaide Road","address":"Adelaide Road","position":{"lat":"53.33273036","lng":"-6.259966355"}},{"number":"313","name":"Our Lady Of Consolation Church","address":"Collins Avenue East","position":{"lat":"53.37518637","lng":"-6.218285655"}},{"number":"314","name":"Dublin Bus Stop","address":"Marino Crescent","position":{"lat":"53.36461499","lng":"-6.229065075"}},{"number":"315","name":"Dublin Bus Stop","address":"Marino Crescent","position":{"lat":"53.36453571","lng":"-6.229173548"}},{"number":"316","name":"Merrion Street Dublin","address":"","position":{"lat":"53.3390241","lng":"-6.252727006"}},{"number":"317","name":"Nassau St","address":"","position":{"lat":"53.34278757","lng":"-6.25685346"}},{"number":"318","name":"Nassau Street","address":"","position":{"lat":"53.34256123","lng":"-6.256126779"}},{"number":"319","name":"Insomnia Cafe","address":"Dawson Street","position":{"lat":"53.34175588","lng":"-6.258217164"}},{"number":"320","name":"The Molly Malone","address":"Grafton Street","position":{"lat":"53.3434339","lng":"-6.259260165"}},{"number":"321","name":"The Westbury Hotel","address":"Balfe Street","position":{"lat":"53.34135206","lng":"-6.261342398"}},{"number":"322","name":"Saint Stephens Green Shopping Centre","address":"Saint Stephens Green","position":{"lat":"53.33976322","lng":"-6.26025068"}},{"number":"323","name":"Il Posto Restaurant","address":"Saint Stephens Green","position":{"lat":"53.33966858","lng":"-6.259308421"}},{"number":"324","name":"The Lombard Pub","address":"Pearse Street","position":{"lat":"53.3435985","lng":"-6.249010478"}},{"number":"326","name":"Connolly Lowe Accountants Building","address":"Chancery Place","position":{"lat":"53.34577917","lng":"-6.272201779"}},{"number":"327","name":"Jurys Inn","address":"Christchurch Place","position":{"lat":"53.34308495","lng":"-6.270493447"}},{"number":"328","name":"Daly's Pharmacy","address":"Cabra Road","position":{"lat":"53.36119789","lng":"-6.284950364"}},{"number":"329","name":"The Cabra Grand Casino","address":"Quarry Road","position":{"lat":"53.36298409","lng":"-6.289792049"}},{"number":"333","name":"Charlotte Way","address":"","position":{"lat":"53.33379546","lng":"-6.2639772"}},{"number":"334","name":"Sarsfield Quay Dublin","address":"Sarsfield Quay","position":{"lat":"53.34707822","lng":"-6.284991517"}},{"number":"335","name":"Mansion House","address":"","position":{"lat":"53.34034164","lng":"-6.258620219"}},{"number":"336","name":"The Gingerman Pub","address":"Fenian Street","position":{"lat":"53.34167624","lng":"-6.249705"}},{"number":"337","name":"Alexander Hotel","address":"Fenian Street","position":{"lat":"53.34157694","lng":"-6.249063279"}},{"number":"338","name":"Il Segreto Bistro","address":"Merrion Row","position":{"lat":"53.33836294","lng":"-6.254225723"}},{"number":"339","name":"Custom House Plaza","address":"Sheriff Street Lower","position":{"lat":"53.35175018","lng":"-6.248360883"}},{"number":"340","name":"Jacobs Inn","address":"Talbot Place","position":{"lat":"53.35039016","lng":"-6.253073295"}},{"number":"341","name":"Jacobs Inn","address":"Talbot Place","position":{"lat":"53.35009847","lng":"-6.251568069"}},{"number":"342","name":"Molloy's Pub","address":"Talbot Place","position":{"lat":"53.35100506","lng":"-6.251485897"}},{"number":"343","name":"Paddy Power Bookmaker","address":"Talbot Street","position":{"lat":"53.35118761","lng":"-6.252289597"}},{"number":"344","name":"The North Star Hotel","address":"Sheriff Street Lower","position":{"lat":"53.35171281","lng":"-6.249489058"}},{"number":"345","name":"Burgh Quay","address":"Burgh Quay","position":{"lat":"53.34725573","lng":"-6.256926503"}},{"number":"346","name":"Insomnia Cafe","address":"Mayor Street Lower","position":{"lat":"53.34933765","lng":"-6.245050023"}},{"number":"347","name":"No Obvious Landmark","address":"Commons Street","position":{"lat":"53.34964688","lng":"-6.245908548"}},{"number":"348","name":"Llyods Pub","address":"Amiens Street","position":{"lat":"53.35254468","lng":"-6.249214611"}},{"number":"349","name":"Guinness Storehouse","address":"Bellevue","position":{"lat":"53.34154389","lng":"-6.285153567"}},{"number":"350","name":"The Burlington Hotel","address":"Sussex Road","position":{"lat":"53.32998832","lng":"-6.249477905"}},{"number":"351","name":"The Burlington Hotel","address":"Sussex Road","position":{"lat":"53.33022081","lng":"-6.250008901"}},{"number":"352","name":"No Obvious Landmark","address":"Grand Canal Street Lower","position":{"lat":"53.33927571","lng":"-6.240492447"}},{"number":"353","name":"The Mespil Hotel","address":"Mespil Road","position":{"lat":"53.33347452","lng":"-6.246947673"}},{"number":"354","name":"Conrad Hotel","address":"Earlsfort Terrace","position":{"lat":"53.33518836","lng":"-6.257794072"}},{"number":"355","name":"Post Office","address":"Saint Andrew Street","position":{"lat":"53.34373184","lng":"-6.261200506"}},{"number":"356","name":"Dublin Citi Hotel","address":"Dame Street","position":{"lat":"53.34428607","lng":"-6.263460879"}},{"number":"357","name":"Hapenny Bridge","address":"","position":{"lat":"53.34612167","lng":"-6.262364919"}},{"number":"358","name":"Dublin Zoo","address":"Chesterfield Avenue","position":{"lat":"53.35185455","lng":"-6.306010603"}},{"number":"359","name":"Sheriff St Upper","address":"Upper Sherriff Street","position":{"lat":"53.3497719","lng":"-6.227607537"}},{"number":"361","name":"Lidl Supermarket","address":"Thomas Street","position":{"lat":"53.34306093","lng":"-6.280647126"}},{"number":"362","name":"Smithfield Luas Stop","address":"Smithfield","position":{"lat":"53.3469029","lng":"-6.278434756"}},{"number":"363","name":"St James Hospital","address":"James Street","position":{"lat":"53.34225499","lng":"-6.294631729"}},{"number":"364","name":"Eircom Building","address":"Saint John's Road West","position":{"lat":"53.34587328","lng":"-6.296875449"}},{"number":"365","name":"Boots Pharmacy","address":"Upper Baggot Street","position":{"lat":"53.33330697","lng":"-6.243500994"}},{"number":"366","name":"Bermingham Camera Store","address":"Burgh Quay","position":{"lat":"53.34737186","lng":"-6.257492539"}},{"number":"367","name":"Clifton Court Hotel","address":"Eden Quay","position":{"lat":"53.34794194","lng":"-6.257754677"}},{"number":"368","name":"Clerys Store","address":"Sackville Place","position":{"lat":"53.34887352","lng":"-6.259384003"}},{"number":"369","name":"Tourist Office","address":"Bachelors Walk","position":{"lat":"53.34748666","lng":"-6.259816017"}},{"number":"370","name":"Q Bar","address":"D'Olier Street","position":{"lat":"53.34696479","lng":"-6.257929707"}},{"number":"374","name":"Ranelagh Take Away","address":"Cullenswood Road","position":{"lat":"53.32516616","lng":"-6.255305046"}},{"number":"375","name":"Gunne Estate Agents","address":"Cullenswood Road","position":{"lat":"53.3250312","lng":"-6.255295541"}},{"number":"378","name":"The Westin Hotel","address":"Westmoreland Street","position":{"lat":"53.34570457","lng":"-6.259032475"}},{"number":"379","name":"O Connell Bridge","address":"","position":{"lat":"53.34726494","lng":"-6.259404479"}},{"number":"383","name":"Our Ladys Hospital","address":"Drimnagh Road","position":{"lat":"53.3256287","lng":"-6.316898078"}},{"number":"386","name":"Pop Noodle Restaurant","address":"Aston Quay","position":{"lat":"53.34670253","lng":"-6.260283539"}},{"number":"387","name":"Dublin Barber","address":"Aston Quay","position":{"lat":"53.34645778","lng":"-6.261374947"}},{"number":"388","name":"Ibat College Dublin","address":"Wellington Quay","position":{"lat":"53.34556107","lng":"-6.26584225"}},{"number":"389","name":"Wax Museum","address":"Foster Place","position":{"lat":"53.34492677","lng":"-6.261166897"}},{"number":"390","name":"Taxi Rank","address":"","position":{"lat":"53.3445013","lng":"-6.260958922"}},{"number":"391","name":"Bank Of Ireland","address":"College Green","position":{"lat":"53.3444255","lng":"-6.260075868"}},{"number":"392","name":"Fas Employment Services Building","address":"Parnell Street","position":{"lat":"53.35032021","lng":"-6.265528885"}},{"number":"393","name":"Pennys Store","address":"Parnell Street","position":{"lat":"53.35012513","lng":"-6.266948809"}},{"number":"396","name":"Eccle Street Car Park","address":"Eccles Street","position":{"lat":"53.35821078","lng":"-6.266079831"}},{"number":"397","name":"Parkgate Street Dublin","address":"Parkgate Street","position":{"lat":"53.34790175","lng":"-6.292904286"}},{"number":"398","name":"Inchicore Library","address":"Emmet Road","position":{"lat":"53.3406545","lng":"-6.309112777"}},{"number":"399","name":"Inchicore Library","address":"Emmet Road","position":{"lat":"53.34055479","lng":"-6.3096874"}},{"number":"400","name":"Emmett Road","address":"Emmett Road","position":{"lat":"53.34054602","lng":"-6.309702765"}},{"number":"402","name":"O'Callaghan Hotel","address":"Cuffe Street","position":{"lat":"53.33761602","lng":"-6.263401539"}},{"number":"403","name":"Copper Face Jacks Nite Club","address":"Harcourt Street","position":{"lat":"53.3374916","lng":"-6.262881004"}},{"number":"404","name":"Eddie Rocket's Restaurant","address":"Dame Street","position":{"lat":"53.34409046","lng":"-6.266697953"}},{"number":"405","name":"Ebs Building","address":"Baggot Street","position":{"lat":"53.33796146","lng":"-6.251974548"}},{"number":"406","name":"Government Buildings","address":"Merrion Street Upper","position":{"lat":"53.33904841","lng":"-6.252545803"}},{"number":"407","name":"Cafe En Seine Pub","address":"Dawson Street","position":{"lat":"53.34145813","lng":"-6.25875494"}},{"number":"408","name":"Therapie Clinic","address":"Molesworth Street","position":{"lat":"53.34136632","lng":"-6.257392021"}},{"number":"409","name":"Mater Private Hospital","address":"Eccles Street","position":{"lat":"53.35909457","lng":"-6.269379376"}},{"number":"410","name":"Savoy Cinema","address":"O Connell Street","position":{"lat":"53.35123246","lng":"-6.260895204"}},{"number":"411","name":"Bewleys Hotel","address":"Simmonscourt Road","position":{"lat":"53.32626694","lng":"-6.225129085"}},{"number":"412","name":"Greyhound Race Track","address":"South Lotts Road","position":{"lat":"53.34070234","lng":"-6.231813341"}},{"number":"413","name":"Ashmore Ryder Motor Body Repair Centre","address":"Fitzwilliam Quay","position":{"lat":"53.34153544","lng":"-6.228594975"}},{"number":"415","name":"The Burlington Hotel","address":"Sussex Road","position":{"lat":"53.33043336","lng":"-6.250405589"}},{"number":"420","name":"Mount Argus Road","address":"Lower Kimmage Road","position":{"lat":"53.32429774","lng":"-6.279675293"}},{"number":"431","name":"Cork Street","address":"Cork Street","position":{"lat":"53.33835369","lng":"-6.280821492"}},{"number":"432","name":"Ardee Street","address":"Cork Street","position":{"lat":"53.33850608","lng":"-6.280169623"}},{"number":"433","name":"St Luke's Avenue","address":"St. Luke's Avenue","position":{"lat":"53.33885781","lng":"-6.278383426"}},{"number":"434","name":"Patrick's Cathedral","address":"Patrick Street","position":{"lat":"53.33945807","lng":"-6.272652582"}},{"number":"435","name":"Patrick Street","address":"Patrick Street","position":{"lat":"53.34231512","lng":"-6.271951368"}},{"number":"436","name":"Marion Villas","address":"Cork Street","position":{"lat":"53.33783344","lng":"-6.284641707"}},{"number":"437","name":"Brickfield Lane","address":"Cork Street","position":{"lat":"53.33753643","lng":"-6.285239284"}},{"number":"438","name":"Fernvale Drive","address":"St. Mary's Road","position":{"lat":"53.32457178","lng":"-6.317795378"}},{"number":"446","name":"St. Kevin's Parade","address":"Clanbrassil Street","position":{"lat":"53.33445881","lng":"-6.274386231"}},{"number":"447","name":"St Clare's Avenue","address":"Lower Kimmage Road","position":{"lat":"53.32492903","lng":"-6.279199521"}},{"number":"459","name":"Beckett Bridge","address":"North Wall Quay","position":{"lat":"53.34773657","lng":"-6.241916425"}},{"number":"460","name":"New Wapping Street","address":"North Wall Quay","position":{"lat":"53.34737591","lng":"-6.236358699"}},{"number":"461","name":"New Wapping Street","address":"","position":{"lat":"53.34966038","lng":"-6.235242943"}},{"number":"494","name":"Ashington Park","address":"Ashington Park","position":{"lat":"53.37347317","lng":"-6.311254668"}},{"number":"495","name":"St. Patrick's Close","address":"St Patrick Cathedral","position":{"lat":"53.33931709","lng":"-6.271607056"}},{"number":"506","name":"Moland Street","address":"Talbot Street","position":{"lat":"53.35085993","lng":"-6.253850228"}},{"number":"507","name":"Talbot Street","address":"Talbot Street","position":{"lat":"53.35119348","lng":"-6.251463163"}},{"number":"508","name":"Mabbot Street","address":"Talbot Street","position":{"lat":"53.35104285","lng":"-6.253452187"}},{"number":"512","name":"Drumcliffe Drive","address":"Carnlough Road","position":{"lat":"53.36592858","lng":"-6.292679465"}},{"number":"513","name":"Mulroy Road","address":"Carnlough Road","position":{"lat":"53.36712068","lng":"-6.291820321"}},{"number":"514","name":"Mulroy Road","address":"Carnlough Road","position":{"lat":"53.36766197","lng":"-6.291332813"}},{"number":"519","name":"Downpatrick Road","address":"Sundrive Road","position":{"lat":"53.32639947","lng":"-6.297110798"}},{"number":"520","name":"Downpatrick Road","address":"Sundrive Road","position":{"lat":"53.3262397","lng":"-6.297252277"}},{"number":"521","name":"St Kevin's College","address":"Sundrive Road","position":{"lat":"53.32743702","lng":"-6.298015308"}},{"number":"522","name":"Clogher Road","address":"Clogher Road","position":{"lat":"53.32539682","lng":"-6.298651985"}},{"number":"523","name":"Slane Road","address":"Clogher Road","position":{"lat":"53.32548236","lng":"-6.297717801"}},{"number":"526","name":"St Kevin's College","address":"Sundrive Road","position":{"lat":"53.3277418","lng":"-6.297958135"}},{"number":"529","name":"Health Centre","address":"Sybil Hill Road","position":{"lat":"53.3698655","lng":"-6.194372159"}},{"number":"532","name":"Rutland Avenue","address":"Crumlin Road","position":{"lat":"53.33169122","lng":"-6.294437584"}},{"number":"533","name":"Heuston Train Stn","address":"Heuston Station","position":{"lat":"53.34676578","lng":"-6.292033452"}},{"number":"538","name":"Seaview Avenue","address":"West Road","position":{"lat":"53.35724331","lng":"-6.237468647"}},{"number":"539","name":"West Road","address":"West Road","position":{"lat":"53.3567842","lng":"-6.238028448"}},{"number":"540","name":"East Road","address":"East Road","position":{"lat":"53.35420697","lng":"-6.23029286"}},{"number":"542","name":"Strand Road","address":"Strand Road","position":{"lat":"53.32593416","lng":"-6.20768288"}},{"number":"544","name":"Whitefriars St","address":"Aungier Street","position":{"lat":"53.33991441","lng":"-6.265695957"}},{"number":"545","name":"Military Cemetery","address":"Blackhorse Avenue","position":{"lat":"53.36045006","lng":"-6.308118694"}},{"number":"546","name":"Naomh Fionnbarra GAA","address":"Faussagh Road","position":{"lat":"53.36554163","lng":"-6.289509284"}},{"number":"547","name":"Hawkins Street","address":"Hawkin's Street","position":{"lat":"53.34715999","lng":"-6.257140693"}},{"number":"548","name":"Corn Exchange Place","address":"Corn Exchange Place","position":{"lat":"53.34721343","lng":"-6.255876808"}},{"number":"551","name":"St Attracta Road","address":"Faussagh Road","position":{"lat":"53.36409573","lng":"-6.283331347"}},{"number":"552","name":"Faussagh Road","address":"Faussagh Road","position":{"lat":"53.36404744","lng":"-6.283723969"}},{"number":"553","name":"Coombe Hospital","address":"Cork Street","position":{"lat":"53.33475197","lng":"-6.289750638"}},{"number":"554","name":"Coombe Hospital","address":"Cork Street","position":{"lat":"53.33586838","lng":"-6.289255479"}},{"number":"555","name":"Clontarf Golf Club","address":"Collins Avenue East","position":{"lat":"53.37363008","lng":"-6.210986072"}},{"number":"556","name":"Clanmoyle Road","address":"Collins Avenue East","position":{"lat":"53.37387042","lng":"-6.212629275"}},{"number":"557","name":"Railway Bridge","address":"Collins Avenue East","position":{"lat":"53.37170853","lng":"-6.20751976"}},{"number":"567","name":"Waterloo Avenue","address":"North Strand Road","position":{"lat":"53.35893921","lng":"-6.240929402"}},{"number":"568","name":"Bayview Avenue","address":"North Strand Road","position":{"lat":"53.35768013","lng":"-6.242709026"}},{"number":"569","name":"Strandville Avenue","address":"North Strand Road","position":{"lat":"53.35789452","lng":"-6.242009096"}},{"number":"578","name":"Victoria Quay","address":"Victoria Island","position":{"lat":"53.34662965","lng":"-6.288178749"}},{"number":"579","name":"Victoria Quay","address":"Victoria Quay","position":{"lat":"53.34655233","lng":"-6.285298007"}},{"number":"580","name":"Phoenix House","address":"Conyngham Road","position":{"lat":"53.34833336","lng":"-6.30110331"}},{"number":"581","name":"Pembroke Road","address":"Pembroke Road","position":{"lat":"53.33199912","lng":"-6.235882075"}},{"number":"582","name":"Israel Embassy","address":"Pembroke Road","position":{"lat":"53.33239514","lng":"-6.236526398"}},{"number":"583","name":"Pembroke Road","address":"Pembroke Road","position":{"lat":"53.33273564","lng":"-6.240716621"}},{"number":"584","name":"Eastmoreland Place","address":"Pembroke Road","position":{"lat":"53.33269201","lng":"-6.242024742"}},{"number":"585","name":"Sandymount Avenue","address":"Sandymount Avenue","position":{"lat":"53.32711891","lng":"-6.222586493"}},{"number":"586","name":"Wilfield Park","address":"Sandymount Avenue","position":{"lat":"53.32924439","lng":"-6.218654523"}},{"number":"589","name":"Leeson Village","address":"Upper Leeson Street","position":{"lat":"53.32852998","lng":"-6.246264621"}},{"number":"590","name":"Sandymount Avenue","address":"Sandymount Avenue","position":{"lat":"53.33037715","lng":"-6.216265063"}},{"number":"591","name":"Wilfield Park","address":"Sandymount Avenue","position":{"lat":"53.32937599","lng":"-6.218438842"}},{"number":"592","name":"Sandymount Avenue","address":"","position":{"lat":"53.33031695","lng":"-6.217048326"}},{"number":"593","name":"Sandymount Train Stn","address":"Sandymount Avenue","position":{"lat":"53.32757553","lng":"-6.221261337"}},{"number":"594","name":"Pearse Station","address":"Westland Row","position":{"lat":"53.34303571","lng":"-6.249859577"}},{"number":"595","name":"Pearse Station","address":"Westland Row","position":{"lat":"53.34359132","lng":"-6.249746705"}},{"number":"596","name":"Sandymount Park","address":"Sandymount Green","position":{"lat":"53.33173128","lng":"-6.214857212"}},{"number":"597","name":"Set Down Stop","address":"Bray Station","position":{"lat":"53.3318009","lng":"-6.214704155"}},{"number":"598","name":"Strand Road","address":"Strand Road","position":{"lat":"53.33233124","lng":"-6.210507787"}},{"number":"599","name":"Newgrove Avenue","address":"Newgrove Avenue","position":{"lat":"53.33235103","lng":"-6.211227688"}},{"number":"600","name":"Gilford Road","address":"Gilford Road","position":{"lat":"53.32851434","lng":"-6.211313155"}},{"number":"601","name":"Cullenswood Road","address":"Charleston Road","position":{"lat":"53.32502309","lng":"-6.255355922"}},{"number":"612","name":"Charleston Avenue","address":"Charleston Road","position":{"lat":"53.32370046","lng":"-6.259568221"}},{"number":"613","name":"Oakley Road","address":"Charleston Road","position":{"lat":"53.32463751","lng":"-6.256647706"}},{"number":"628","name":"Parliament Street","address":"Parliament Street","position":{"lat":"53.34463048","lng":"-6.267366937"}},{"number":"643","name":"Dail Eireann","address":"Upr. Merrion Street","position":{"lat":"53.3393595","lng":"-6.252307819"}},{"number":"644","name":"Charlemont Street","address":"Charlemont Street","position":{"lat":"53.33192755","lng":"-6.262236256"}},{"number":"645","name":"Northbrook Road","address":"Ranelagh Road","position":{"lat":"53.32888748","lng":"-6.259011743"}},{"number":"646","name":"Ranelagh Road","address":"Ranelagh Road","position":{"lat":"53.32871177","lng":"-6.258673582"}},{"number":"647","name":"Ranelagh Luas","address":"Ranelagh Road","position":{"lat":"53.32603378","lng":"-6.255629951"}},{"number":"648","name":"Ranelagh Luas","address":"Ranelagh Road","position":{"lat":"53.3259365","lng":"-6.25573901"}},{"number":"654","name":"Ranelagh Road","address":"Ranelagh Road","position":{"lat":"53.3273431","lng":"-6.258504127"}},{"number":"655","name":"Charlemont Street","address":"Charlemont Street","position":{"lat":"53.33196763","lng":"-6.262519911"}},{"number":"656","name":"John the Baptist Ch","address":"Clontarf Road","position":{"lat":"53.35930268","lng":"-6.196636811"}},{"number":"657","name":"John the Baptist Ch","address":"Clontarf Road","position":{"lat":"53.35909654","lng":"-6.196675566"}},{"number":"658","name":"Clontarf Bus Garage","address":"Clontarf Road","position":{"lat":"53.35848122","lng":"-6.190466418"}},{"number":"659","name":"Clontarf Bus Garage","address":"Clontarf Road","position":{"lat":"53.35862494","lng":"-6.190460328"}},{"number":"660","name":"Clontarf Baths","address":"Clontarf Road","position":{"lat":"53.36038211","lng":"-6.205636313"}},{"number":"661","name":"Clontarf Baths","address":"Clontarf Road","position":{"lat":"53.36021262","lng":"-6.206319559"}},{"number":"667","name":"Seapark","address":"Mount Prospect Avenue","position":{"lat":"53.36642998","lng":"-6.187124075"}},{"number":"668","name":"Wooden Bridge","address":"Clontarf Road","position":{"lat":"53.35981271","lng":"-6.185812379"}},{"number":"669","name":"Wooden Bridge","address":"Clontarf Road","position":{"lat":"53.35965628","lng":"-6.186164596"}},{"number":"672","name":"Fortview Avenue","address":"Clontarf Road","position":{"lat":"53.35825702","lng":"-6.193465762"}},{"number":"673","name":"Vernon Court","address":"Clontarf Road","position":{"lat":"53.35823109","lng":"-6.194127929"}},{"number":"680","name":"Clontarf Station","address":"Clontarf Road","position":{"lat":"53.3638852","lng":"-6.226525859"}},{"number":"681","name":"Clontarf Road","address":"Clontarf Road","position":{"lat":"53.36414162","lng":"-6.226845787"}},{"number":"682","name":"St Lawrence Road","address":"Clontarf Road","position":{"lat":"53.3621258","lng":"-6.216426585"}},{"number":"683","name":"Alfie Byrne Road","address":"Clontarf Road","position":{"lat":"53.36218957","lng":"-6.21708505"}},{"number":"684","name":"St Lawrence Road","address":"Clontarf Road","position":{"lat":"53.36214218","lng":"-6.216921746"}},{"number":"685","name":"Oultan Road","address":"Clontarf Road","position":{"lat":"53.36025652","lng":"-6.202666638"}},{"number":"686","name":"Oultan Road","address":"Clontarf Road","position":{"lat":"53.36009975","lng":"-6.202402787"}},{"number":"687","name":"Scoil U� Chonaill","address":"Clontarf Road","position":{"lat":"53.3603848","lng":"-6.208806485"}},{"number":"688","name":"Haddon Court","address":"Clontarf Road","position":{"lat":"53.36038914","lng":"-6.210293783"}},{"number":"689","name":"The Court","address":"Clontarf Road","position":{"lat":"53.36113569","lng":"-6.213928666"}},{"number":"690","name":"The Stiles Road","address":"Seaview Avenue","position":{"lat":"53.36114333","lng":"-6.214439207"}},{"number":"697","name":"Castle Avenue","address":"Castle Avenue","position":{"lat":"53.3697266","lng":"-6.203034369"}},{"number":"698","name":"Castle Avenue","address":"Castle Avenue","position":{"lat":"53.37001449","lng":"-6.203052306"}},{"number":"699","name":"Orthopaedic Hospital","address":"Castle Avenue","position":{"lat":"53.36782464","lng":"-6.203865814"}},{"number":"700","name":"Orthopaedic Hospital","address":"Castle Avenue","position":{"lat":"53.36767979","lng":"-6.20379677"}},{"number":"705","name":"Rosecourt","address":"Cabra Road","position":{"lat":"53.36153976","lng":"-6.296896742"}},{"number":"706","name":"Rosecourt","address":"Cabra Road","position":{"lat":"53.3616974","lng":"-6.297236037"}},{"number":"707","name":"Rosecourt","address":"Cabra Road","position":{"lat":"53.3615034","lng":"-6.296868142"}},{"number":"714","name":"Mount Prospect Ave","address":"Mount Prospect Avenue","position":{"lat":"53.36661369","lng":"-6.189159985"}},{"number":"715","name":"Blackheath Drive","address":"Blackheath Drive","position":{"lat":"53.36656177","lng":"-6.202371141"}},{"number":"716","name":"Clontarf Cemetery","address":"Castle Avenue","position":{"lat":"53.36663227","lng":"-6.202278009"}},{"number":"717","name":"Castle Avenue","address":"Castle Avenue","position":{"lat":"53.3651156","lng":"-6.204821282"}},{"number":"718","name":"Blackheath Park","address":"Blackheath Park","position":{"lat":"53.36589297","lng":"-6.19557704"}},{"number":"719","name":"Seapark Road","address":"Seapark Road","position":{"lat":"53.36597225","lng":"-6.187759622"}},{"number":"720","name":"Seafield Avenue","address":"Seafield Avenue","position":{"lat":"53.36531208","lng":"-6.191048466"}},{"number":"721","name":"Vernon Avenue","address":"Vernon Avenue","position":{"lat":"53.36443999","lng":"-6.195187653"}},{"number":"722","name":"Vernon Avenue","address":"Vernon Avenue","position":{"lat":"53.36440678","lng":"-6.195369375"}},{"number":"723","name":"Blackheath Avenue","address":"Blackheath Park","position":{"lat":"53.366121","lng":"-6.197581033"}},{"number":"724","name":"Seafield Road","address":"Seafield Road East","position":{"lat":"53.36375119","lng":"-6.191249835"}},{"number":"725","name":"Seafield Road","address":"Seafield Road East","position":{"lat":"53.36381601","lng":"-6.191968351"}},{"number":"726","name":"Blackheath Park","address":"Blackheath Park","position":{"lat":"53.36681092","lng":"-6.203397536"}},{"number":"729","name":"St Gabriel's Road","address":"Mount Prospect Avenue","position":{"lat":"53.36604192","lng":"-6.18524714"}},{"number":"730","name":"Clontarf Cemetery","address":"Castle Avenue","position":{"lat":"53.36501075","lng":"-6.205021037"}},{"number":"739","name":"Manor Street","address":"Manor Street","position":{"lat":"53.35257014","lng":"-6.284380448"}},{"number":"740","name":"Aughrim Court","address":"Aughrim Street","position":{"lat":"53.35333392","lng":"-6.286242592"}},{"number":"741","name":"Castle Avenue","address":"Castle Avenue","position":{"lat":"53.36117439","lng":"-6.209314275"}},{"number":"742","name":"Hampton Court","address":"Vernon Avenue","position":{"lat":"53.36794041","lng":"-6.194859334"}},{"number":"743","name":"Knights Bridge","address":"Castle Avenue","position":{"lat":"53.36335559","lng":"-6.206127422"}},{"number":"744","name":"Stoneybatter","address":"Stoneybatter","position":{"lat":"53.35109137","lng":"-6.282802485"}},{"number":"747","name":"Blackhall Place","address":"Blackhall Place","position":{"lat":"53.34835107","lng":"-6.282251726"}},{"number":"748","name":"Constitution Hill","address":"Constitution Hill","position":{"lat":"53.3529127","lng":"-6.273235198"}},{"number":"749","name":"Broadstone","address":"Constitution Hill","position":{"lat":"53.35393986","lng":"-6.272788062"}},{"number":"759","name":"Church Street","address":"Church Street","position":{"lat":"53.34782717","lng":"-6.274597332"}},{"number":"760","name":"St Michan's Church","address":"Church Street","position":{"lat":"53.34728508","lng":"-6.275024773"}},{"number":"761","name":"Capuchin Church","address":"Church Street","position":{"lat":"53.34916974","lng":"-6.274828506"}},{"number":"762","name":"Church Street Upper","address":"Church Street","position":{"lat":"53.35088706","lng":"-6.274248418"}},{"number":"763","name":"Church Street Upper","address":"Constitution Hill","position":{"lat":"53.35125739","lng":"-6.273752763"}},{"number":"768","name":"Dunard Walk","address":"Blackhorse Avenue","position":{"lat":"53.35842827","lng":"-6.302459572"}},{"number":"769","name":"Dunard Walk","address":"Blackhorse Avenue","position":{"lat":"53.35839211","lng":"-6.303076999"}},{"number":"770","name":"Glenbeigh Avenue","address":"Blackhorse Avenue","position":{"lat":"53.3568682","lng":"-6.297052991"}},{"number":"771","name":"Blackhorse Avenue","address":"Blackhorse Avenue","position":{"lat":"53.35673217","lng":"-6.296968274"}},{"number":"772","name":"Drumalee","address":"North Circular Road","position":{"lat":"53.35649833","lng":"-6.291298723"}},{"number":"773","name":"Aughrim Street","address":"Aughrim Street","position":{"lat":"53.35556991","lng":"-6.291741491"}},{"number":"774","name":"Blackhorse Avenue","address":"Blackhorse Avenue","position":{"lat":"53.36006983","lng":"-6.307292375"}},{"number":"775","name":"Cabra Garda Station","address":"Navan Road","position":{"lat":"53.36518655","lng":"-6.309373553"}},{"number":"776","name":"Cabra Garda Station","address":"Navan Road","position":{"lat":"53.3647354","lng":"-6.307347834"}},{"number":"777","name":"Navan Road Church","address":"Navan Road","position":{"lat":"53.36561083","lng":"-6.310138138"}},{"number":"781","name":"Blackhall Place","address":"Blackhall Place","position":{"lat":"53.34771198","lng":"-6.282187299"}},{"number":"782","name":"Holy Family Church","address":"Aughrim Street","position":{"lat":"53.35457798","lng":"-6.289632901"}},{"number":"783","name":"Manor Street","address":"Manor Street","position":{"lat":"53.35190782","lng":"-6.283325473"}},{"number":"784","name":"Stoneybatter","address":"Stoneybatter","position":{"lat":"53.35063781","lng":"-6.281889388"}},{"number":"785","name":"Our Lady's Church","address":"Navan Road","position":{"lat":"53.36644362","lng":"-6.313095538"}},{"number":"786","name":"Our Lady's Church","address":"Navan Road","position":{"lat":"53.36656726","lng":"-6.312940382"}},{"number":"787","name":"Skreen Road","address":"Skreen Road","position":{"lat":"53.36305227","lng":"-6.305280898"}},{"number":"788","name":"Croaghpatrick Road","address":"Skreen Road","position":{"lat":"53.36325997","lng":"-6.304716699"}},{"number":"789","name":"Baggot Road","address":"Navan Road","position":{"lat":"53.36754069","lng":"-6.31759044"}},{"number":"790","name":"Baggot Road","address":"Navan Road","position":{"lat":"53.36770883","lng":"-6.317403485"}},{"number":"791","name":"Ardpatrick Road","address":"Skreen Road","position":{"lat":"53.36218075","lng":"-6.308470833"}},{"number":"792","name":"Skreen Road","address":"Skreen Road","position":{"lat":"53.36198882","lng":"-6.309515188"}},{"number":"793","name":"St David's Terrace","address":"Blackhorse Avenue","position":{"lat":"53.35614518","lng":"-6.29425743"}},{"number":"794","name":"Mc Kee Park","address":"Blackhorse Avenue","position":{"lat":"53.35733236","lng":"-6.298717145"}},{"number":"795","name":"McKee Park","address":"Blackhorse Avenue","position":{"lat":"53.35729728","lng":"-6.298778638"}},{"number":"815","name":"Salmon Pool","address":"Chapelizod Road","position":{"lat":"53.34743859","lng":"-6.31533304"}},{"number":"816","name":"Islandbridge Gate","address":"Chapelizod Road","position":{"lat":"53.34813204","lng":"-6.310979792"}},{"number":"824","name":"Iveagh Gardens","address":"Crumlin Road","position":{"lat":"53.32743276","lng":"-6.309725806"}},{"number":"825","name":"Drimnagh Road","address":"Crumlin Road","position":{"lat":"53.32556158","lng":"-6.316600469"}},{"number":"826","name":"Crumlin Hospital","address":"Drimnagh Road","position":{"lat":"53.32566252","lng":"-6.316746621"}},{"number":"829","name":"Crumlin SC","address":"Crumlin Road","position":{"lat":"53.3296954","lng":"-6.300072408"}},{"number":"830","name":"Crumlin Shopping Centre","address":"Crumlin Road","position":{"lat":"53.32965433","lng":"-6.300344293"}},{"number":"831","name":"Dolphin's Barn","address":"Dolphins Barn","position":{"lat":"53.33294615","lng":"-6.292315414"}},{"number":"832","name":"Dolphin's Barn","address":"Dolphin's Barn","position":{"lat":"53.33315293","lng":"-6.291691527"}},{"number":"833","name":"Islandbridge Gate","address":"Chapelizod Road","position":{"lat":"53.34802557","lng":"-6.310443264"}},{"number":"834","name":"UCD Boat Club","address":"Chapelizod Road","position":{"lat":"53.34724563","lng":"-6.315671093"}},{"number":"835","name":"Crumlin College","address":"Crumlin Road","position":{"lat":"53.32901693","lng":"-6.302921981"}},{"number":"836","name":"Crumlin SC","address":"Crumlin Road","position":{"lat":"53.32903747","lng":"-6.302470751"}},{"number":"837","name":"Crumlin Road","address":"Crumlin Road","position":{"lat":"53.32693329","lng":"-6.312537979"}},{"number":"838","name":"Iveagh Grounds","address":"Crumlin Road","position":{"lat":"53.32804528","lng":"-6.307284425"}},{"number":"839","name":"Werburgh Street","address":"Werburgh Street","position":{"lat":"53.3424457","lng":"-6.269798428"}},{"number":"840","name":"Kevin Street","address":"Upper Kevin Street","position":{"lat":"53.33828529","lng":"-6.270492467"}},{"number":"841","name":"The Coombe","address":"The Coombe","position":{"lat":"53.33989193","lng":"-6.278416854"}},{"number":"842","name":"Dean Street","address":"The Coombe","position":{"lat":"53.3395977","lng":"-6.275470244"}},{"number":"843","name":"The Coombe","address":"The Coombe","position":{"lat":"53.33976302","lng":"-6.277581059"}},{"number":"844","name":"St Luke's Avenue","address":"St. Luke's Avenue","position":{"lat":"53.33887886","lng":"-6.275484234"}},{"number":"845","name":"Ardee Court","address":"St. Luke's Avenue","position":{"lat":"53.33874234","lng":"-6.278478181"}},{"number":"846","name":"Caledon Road","address":"East Road","position":{"lat":"53.35294137","lng":"-6.231622198"}},{"number":"847","name":"Church Road","address":"Church Road","position":{"lat":"53.35353813","lng":"-6.23672019"}},{"number":"848","name":"Oxford Terrace","address":"Church Road","position":{"lat":"53.35231172","lng":"-6.237056238"}},{"number":"849","name":"St Mary's Road North","address":"Church Road","position":{"lat":"53.35366411","lng":"-6.236730012"}},{"number":"850","name":"St Mary's Road","address":"St. Mary's Road","position":{"lat":"53.35484117","lng":"-6.238529251"}},{"number":"851","name":"St Mary's Road","address":"St. Mary's Road","position":{"lat":"53.35465376","lng":"-6.238011177"}},{"number":"859","name":"East Road","address":"East Road","position":{"lat":"53.35438083","lng":"-6.229895061"}},{"number":"860","name":"Bargy Road","address":"","position":{"lat":"53.35432872","lng":"-6.230017404"}},{"number":"861","name":"Kilane Road","address":"Church Road","position":{"lat":"53.35177851","lng":"-6.23503526"}},{"number":"862","name":"Church Court","address":"Church Road","position":{"lat":"53.35263855","lng":"-6.232415893"}},{"number":"863","name":"Merchants Road","address":"East Wall Road","position":{"lat":"53.3535229","lng":"-6.226595602"}},{"number":"864","name":"Calor Gas Supplies","address":"Alexandra Road","position":{"lat":"53.35032045","lng":"-6.197031054"}},{"number":"865","name":"Nth Strand Fire Stn","address":"North Strand Road","position":{"lat":"53.35991702","lng":"-6.239581965"}},{"number":"866","name":"East Wall Road","address":"East Wall Road","position":{"lat":"53.3602301","lng":"-6.23826189"}},{"number":"867","name":"North Strand Road","address":"North Strand Road","position":{"lat":"53.36033876","lng":"-6.239534528"}},{"number":"868","name":"Portside Court","address":"West Road","position":{"lat":"53.35832621","lng":"-6.235936552"}},{"number":"869","name":"West Road","address":"West Road","position":{"lat":"53.35834894","lng":"-6.235650152"}},{"number":"870","name":"Strangford Rd East","address":"West Road","position":{"lat":"53.35638242","lng":"-6.238210283"}},{"number":"871","name":"Ferry Terminal","address":"","position":{"lat":"53.34570612","lng":"-6.195618655"}},{"number":"872","name":"Alexandra Road","address":"Alexandra Road","position":{"lat":"53.35018631","lng":"-6.203631144"}},{"number":"873","name":"Alexandra Road","address":"Alexandra Road","position":{"lat":"53.35072242","lng":"-6.212396263"}},{"number":"874","name":"Alexandra Road","address":"Alexandra Road","position":{"lat":"53.35077612","lng":"-6.21598419"}},{"number":"875","name":"Alexandra Road  Pos. 1","address":"","position":{"lat":"53.35063076","lng":"-6.211078197"}},{"number":"876","name":"Docklands Park","address":"East Wall Road","position":{"lat":"53.35412663","lng":"-6.227907564"}},{"number":"877","name":"Breakwater Rd South","address":"Alexandra Road","position":{"lat":"53.35030777","lng":"-6.203340628"}},{"number":"878","name":"Alexandra Road","address":"Alexandra Road","position":{"lat":"53.35113565","lng":"-6.222608796"}},{"number":"879","name":"Branch Road North","address":"Alexandra Road","position":{"lat":"53.35104978","lng":"-6.219863392"}},{"number":"880","name":"Stop No. 7521","address":"","position":{"lat":"53.35090249","lng":"-6.219028315"}},{"number":"881","name":"Branch Road South","address":"Alexandra Road","position":{"lat":"53.35085966","lng":"-6.214959227"}},{"number":"882","name":"Alexandra Road  Pos. 1","address":"","position":{"lat":"53.35070943","lng":"-6.215130743"}},{"number":"883","name":"Steeven's Lane","address":"James Street","position":{"lat":"53.3433454","lng":"-6.28918142"}},{"number":"884","name":"Mount Brown","address":"Mount Brown","position":{"lat":"53.34137327","lng":"-6.298346365"}},{"number":"885","name":"Old Kilmainham","address":"Old Kilmainham","position":{"lat":"53.34067533","lng":"-6.303615405"}},{"number":"886","name":"Old Kilmainham","address":"Old Kilmainham","position":{"lat":"53.34085366","lng":"-6.304779726"}},{"number":"887","name":"James Street","address":"James Street","position":{"lat":"53.34356007","lng":"-6.288481954"}},{"number":"888","name":"James Street","address":"James Street","position":{"lat":"53.3435386","lng":"-6.285734348"}},{"number":"889","name":"Thomas Street","address":"Thomas Street","position":{"lat":"53.34357108","lng":"-6.285492741"}},{"number":"890","name":"Francis Street","address":"Francis Street","position":{"lat":"53.33987135","lng":"-6.273882345"}},{"number":"891","name":"High Street","address":"High Street","position":{"lat":"53.3430875","lng":"-6.273151674"}},{"number":"892","name":"Francis St Junc","address":"Thomas Street","position":{"lat":"53.34311924","lng":"-6.276589701"}},{"number":"893","name":"Thomas Street","address":"Thomas Street","position":{"lat":"53.3429779","lng":"-6.276760608"}},{"number":"894","name":"Bridgefoot Street","address":"Thomas Street","position":{"lat":"53.34313962","lng":"-6.280493772"}},{"number":"895","name":"Bridgefoot Street","address":"Thomas Street","position":{"lat":"53.34299827","lng":"-6.280664666"}},{"number":"903","name":"Myra Cottages","address":"Emmet Road","position":{"lat":"53.34047278","lng":"-6.314691573"}},{"number":"904","name":"Richmond Park","address":"Emmet Road","position":{"lat":"53.34011881","lng":"-6.316357477"}},{"number":"906","name":"Lord Edward Street","address":"","position":{"lat":"53.34393435","lng":"-6.268326351"}},{"number":"907","name":"Dunard","address":"Old Cabra Road","position":{"lat":"53.36116271","lng":"-6.297557861"}},{"number":"908","name":"Skreen Road","address":"Navan Road","position":{"lat":"53.36337465","lng":"-6.303299713"}},{"number":"909","name":"Navan Road","address":"Navan Road","position":{"lat":"53.36290691","lng":"-6.302642142"}},{"number":"910","name":"Cabra Road","address":"Cabra Road","position":{"lat":"53.3615636","lng":"-6.294161194"}},{"number":"911","name":"Cabra Road","address":"Cabra Road","position":{"lat":"53.36138033","lng":"-6.294544145"}},{"number":"915","name":"Swilly Road","address":"Carnlough Road","position":{"lat":"53.36177615","lng":"-6.293311284"}},{"number":"916","name":"Carnlough Road","address":"Carnlough Road","position":{"lat":"53.3619678","lng":"-6.293513979"}},{"number":"917","name":"Cabra Drive","address":"Old Cabra Road","position":{"lat":"53.3586908","lng":"-6.291256073"}},{"number":"918","name":"Cabra Drive","address":"Old Cabra Road","position":{"lat":"53.35880633","lng":"-6.291792324"}},{"number":"919","name":"Glenbeigh Road","address":"Old Cabra Road","position":{"lat":"53.36021577","lng":"-6.294816027"}},{"number":"920","name":"Meath Street","address":"Meath Street","position":{"lat":"53.34221265","lng":"-6.279164391"}},{"number":"921","name":"Dame Street","address":"","position":{"lat":"53.34429056","lng":"-6.265623469"}},{"number":"922","name":"Dame Street","address":"","position":{"lat":"53.3441256","lng":"-6.265404877"}},{"number":"923","name":"Old Cabra Road","address":"Old Cabra Road","position":{"lat":"53.36120076","lng":"-6.297075539"}},{"number":"924","name":"Glenbeigh Road","address":"Old Cabra Road","position":{"lat":"53.35990495","lng":"-6.293821785"}},{"number":"925","name":"Prussia Street","address":"Prussia Street","position":{"lat":"53.35663451","lng":"-6.288258519"}},{"number":"926","name":"Prussia Street","address":"Prussia Street","position":{"lat":"53.35696027","lng":"-6.288410723"}},{"number":"932","name":"Anglesea Road","address":"Anglesea Road","position":{"lat":"53.32440337","lng":"-6.230370691"}},{"number":"933","name":"High Street","address":"High Street","position":{"lat":"53.34331048","lng":"-6.273653305"}},{"number":"934","name":"Lord Edward Street","address":"","position":{"lat":"53.34377081","lng":"-6.26944439"}},{"number":"935","name":"Exchange St Upper","address":"","position":{"lat":"53.34404127","lng":"-6.268261941"}},{"number":"936","name":"Lord Edward Street","address":"Lord Edward Street","position":{"lat":"53.34393478","lng":"-6.268356372"}},{"number":"937","name":"Pembroke Road","address":"Pembroke Road","position":{"lat":"53.3301281","lng":"-6.232746217"}},{"number":"938","name":"Anglesea Road","address":"Anglesea Road","position":{"lat":"53.32829323","lng":"-6.230840258"}},{"number":"939","name":"Guinness RFC","address":"Crumlin Road","position":{"lat":"53.32808359","lng":"-6.306817491"}},{"number":"940","name":"Simmonscourt Castle","address":"Anglesea Road","position":{"lat":"53.3249254","lng":"-6.231024649"}},{"number":"955","name":"Basin Street Lower","address":"James Street","position":{"lat":"53.34267519","lng":"-6.293218227"}},{"number":"956","name":"St James's Hospital","address":"St. James's Hospital","position":{"lat":"53.33995008","lng":"-6.296871235"}},{"number":"957","name":"Mount Brown","address":"Mount Brown","position":{"lat":"53.34142397","lng":"-6.2993806"}},{"number":"962","name":"Memorial Gardens","address":"Con Colbert Road","position":{"lat":"53.34317893","lng":"-6.315380835"}},{"number":"965","name":"Windmill Road","address":"Kildare Road","position":{"lat":"53.32515908","lng":"-6.311016683"}},{"number":"966","name":"Windmill Road","address":"Kildare Road","position":{"lat":"53.32530138","lng":"-6.31027545"}},{"number":"968","name":"New Ireland Road","address":"Herberton Road","position":{"lat":"53.33500798","lng":"-6.29885506"}},{"number":"969","name":"Herberton Road","address":"Herberton Road","position":{"lat":"53.33557455","lng":"-6.298877559"}},{"number":"970","name":"Arran Quay","address":"Arran Quay","position":{"lat":"53.3463359","lng":"-6.278382504"}},{"number":"971","name":"Herberton Drive","address":"Herberton Road","position":{"lat":"53.33193621","lng":"-6.297746089"}},{"number":"972","name":"Herberton Road","address":"Herberton Road","position":{"lat":"53.33236226","lng":"-6.297999392"}},{"number":"973","name":"RDS Showgrounds Royal Dublin Society","address":"Simmonscourt Road","position":{"lat":"53.32534261","lng":"-6.227644548"}},{"number":"995","name":"Mater Private Hospital","address":"Eccles Street","position":{"lat":"53.35785219","lng":"-6.264907492"}},{"number":"996","name":"Francis Street","address":"Francis Street","position":{"lat":"53.34221172","lng":"-6.27536475"}},{"number":"997","name":"Ardee Street","address":"Ardee Street","position":{"lat":"53.33784989","lng":"-6.278919588"}},{"number":"998","name":"Ardee Street","address":"Ardee Street","position":{"lat":"53.33814914","lng":"-6.279102759"}},{"number":"999","name":"O'Donovan Road","address":"O'Donovan Road","position":{"lat":"53.33457709","lng":"-6.280087464"}},{"number":"1000","name":"O'Donovan Road","address":"O'Donovan Road","position":{"lat":"53.33460177","lng":"-6.279305649"}},{"number":"1004","name":"Saint Werburgh's Church","address":"Werburgh Street","position":{"lat":"53.34252416","lng":"-6.269630047"}},{"number":"1006","name":"Offaly Road","address":"Dowth Avenue","position":{"lat":"53.36285751","lng":"-6.282855228"}},{"number":"1007","name":"Newgrange Road","address":"Dowth Avenue","position":{"lat":"53.36135206","lng":"-6.283171196"}},{"number":"1008","name":"Dowth Avenue","address":"Dowth Avenue","position":{"lat":"53.36156852","lng":"-6.283222595"}},{"number":"1009","name":"Cabra PO","address":"Dowth Avenue","position":{"lat":"53.36333956","lng":"-6.282625479"}},{"number":"1010","name":"Donore Avenue","address":"Donore Avenue","position":{"lat":"53.33196592","lng":"-6.283510815"}},{"number":"1011","name":"Donore Avenue","address":"Donore Avenue","position":{"lat":"53.33199006","lng":"-6.283314652"}},{"number":"1012","name":"Rutledge Terrace","address":"Rutledge Terrace","position":{"lat":"53.3341213","lng":"-6.282763573"}},{"number":"1013","name":"Meath Street","address":"Meath Street","position":{"lat":"53.34018446","lng":"-6.278134749"}},{"number":"1014","name":"Mater Private Hospital","address":"Eccles Street","position":{"lat":"53.35810476","lng":"-6.265588339"}},{"number":"1015","name":"Mater Hospital","address":"Eccles Street","position":{"lat":"53.35822739","lng":"-6.266605002"}},{"number":"1017","name":"Saint Anne's Park","address":"Sybil Hill Road","position":{"lat":"53.37020796","lng":"-6.194432815"}},{"number":"1018","name":"Brookwood Avenue","address":"Brookwood Avenue","position":{"lat":"53.37598831","lng":"-6.195090104"}},{"number":"1019","name":"Vernon Avenue","address":"Vernon Avenue","position":{"lat":"53.37024609","lng":"-6.201720046"}},{"number":"1020","name":"Vernon Avenue","address":"Vernon Avenue","position":{"lat":"53.37009106","lng":"-6.200975153"}},{"number":"1021","name":"Sacred Heart Residence","address":"Sybil Hill Road","position":{"lat":"53.37408212","lng":"-6.194449282"}},{"number":"1022","name":"Saint Pauls College","address":"Sybil Hill Road","position":{"lat":"53.37401628","lng":"-6.194256679"}},{"number":"1032","name":"Collins Avenue","address":"Collins Avenue East","position":{"lat":"53.37161176","lng":"-6.207659085"}},{"number":"1033","name":"Clanawley Road","address":"Collins Avenue East","position":{"lat":"53.37279891","lng":"-6.20950294"}},{"number":"1034","name":"Clontarf Station","address":"","position":{"lat":"53.3630049","lng":"-6.226562423"}},{"number":"1037","name":"Buckingham Street Lower","address":"Amiens Street","position":{"lat":"53.35286823","lng":"-6.248600457"}},{"number":"1045","name":"Marian School","address":"Ratoath Road","position":{"lat":"53.37270954","lng":"-6.306205026"}},{"number":"1046","name":"Marian College","address":"Ratoath Road","position":{"lat":"53.3725994","lng":"-6.306044076"}},{"number":"1047","name":"Bangor Road","address":"Clogher Road","position":{"lat":"53.32478918","lng":"-6.3007929"}},{"number":"1048","name":"Bangor Road","address":"Kildare Road","position":{"lat":"53.3248749","lng":"-6.303026333"}},{"number":"1049","name":"Saul Road","address":"Kildare Road","position":{"lat":"53.32494574","lng":"-6.301056901"}},{"number":"1050","name":"Clontarf Castle","address":"Castle Avenue","position":{"lat":"53.36474399","lng":"-6.205212572"}},{"number":"1051","name":"Newmarket Street","address":"St. Luke's Avenue","position":{"lat":"53.33898244","lng":"-6.275810436"}},{"number":"1053","name":"Mayor Street Lower","address":"Common Street","position":{"lat":"53.3511244","lng":"-6.245532421"}},{"number":"1054","name":"Manor Place","address":"Manor Place","position":{"lat":"53.35149271","lng":"-6.286962395"}},{"number":"1055","name":"Manor Place","address":"Manor Place","position":{"lat":"53.35121877","lng":"-6.287288835"}},{"number":"1056","name":"Manor Place","address":"Manor Place","position":{"lat":"53.35227413","lng":"-6.284422381"}},{"number":"1057","name":"Manor Place","address":"Manor Place","position":{"lat":"53.35210864","lng":"-6.284789555"}},{"number":"1058","name":"Oxmanstown Road","address":"Oxmanstown Road","position":{"lat":"53.35473032","lng":"-6.293367494"}},{"number":"1060","name":"Byrnes Pharmacy","address":"Oxmanstown Road","position":{"lat":"53.35483532","lng":"-6.293168001"}},{"number":"1061","name":"Oxmanstown Park","address":"Manor Place","position":{"lat":"53.35256279","lng":"-6.289503284"}},{"number":"1062","name":"Oxmanstown Road","address":"Oxmanstown Road","position":{"lat":"53.35258845","lng":"-6.289412124"}},{"number":"1067","name":"Mountjoy Sq West","address":"Mountjoy Square West","position":{"lat":"53.35618658","lng":"-6.258545125"}},{"number":"1068","name":"Mountjoy Sq North","address":"Mountjoy Square Nth","position":{"lat":"53.35699394","lng":"-6.258437086"}},{"number":"1071","name":"Ashington Avenue","address":"Ashington Avenue","position":{"lat":"53.3716761","lng":"-6.315744228"}},{"number":"1072","name":"Ashington Avenue","address":"Ashington Avenue","position":{"lat":"53.37211889","lng":"-6.315275888"}},{"number":"1075","name":"Grove Park","address":"Lower Rathmines Road","position":{"lat":"53.32889608","lng":"-6.26453649"}},{"number":"1076","name":"Kildare Street","address":"Kildare Street","position":{"lat":"53.34153673","lng":"-6.254907051"}},{"number":"1077","name":"Ashington Park","address":"Ashington Park","position":{"lat":"53.37344814","lng":"-6.311390923"}},{"number":"1078","name":"Kinvara Avenue","address":"Kinvara Avenue","position":{"lat":"53.36914632","lng":"-6.317361855"}},{"number":"1085","name":"Kildare Street","address":"Kildare Street","position":{"lat":"53.34032254","lng":"-6.255467243"}},{"number":"1086","name":"Royal Canal Avenue","address":"Royal Canal Avenue","position":{"lat":"53.37572812","lng":"-6.316906984"}},{"number":"1089","name":"Marino Estate","address":"Croydon Park Avenue","position":{"lat":"53.36885875","lng":"-6.235831951"}},{"number":"1090","name":"Cabra PO","address":"Faussagh Road","position":{"lat":"53.36461441","lng":"-6.286901792"}},{"number":"1091","name":"Faussagh Road","address":"Faussagh Road","position":{"lat":"53.36475239","lng":"-6.287121652"}},{"number":"1092","name":"Royal Canal Avenue","address":"Royal Canal Avenue","position":{"lat":"53.37582324","lng":"-6.317278989"}},{"number":"1093","name":"Saint Vincent Deaf","address":"Ratoath Road","position":{"lat":"53.36418656","lng":"-6.299090173"}},{"number":"1094","name":"Hawkins Street","address":"","position":{"lat":"53.34618678","lng":"-6.256970115"}},{"number":"1095","name":"O'Connell St Lower","address":"Lower O'Connell Street","position":{"lat":"53.34859637","lng":"-6.25948542"}},{"number":"1096","name":"O'Connell St Lower","address":"Lower O'Connell Street","position":{"lat":"53.3487839","lng":"-6.260018529"}},{"number":"1097","name":"O'Connell St Lower","address":"Lower O'Connell Street","position":{"lat":"53.34868422","lng":"-6.259962506"}},{"number":"1098","name":"Nephin Road","address":"Nephin Road","position":{"lat":"53.36680376","lng":"-6.304260414"}},{"number":"1099","name":"St James's Hospital","address":"St. James's Hospital","position":{"lat":"53.33996399","lng":"-6.297216087"}},{"number":"1100","name":"St James's Dental","address":"St. James's Hospital","position":{"lat":"53.34070517","lng":"-6.293732431"}},{"number":"1101","name":"Fairview Strand","address":"Fairview Strand","position":{"lat":"53.3625825","lng":"-6.241139929"}},{"number":"1102","name":"Parnell Street","address":"","position":{"lat":"53.3539376","lng":"-6.257795552"}},{"number":"1103","name":"Parnell Street","address":"","position":{"lat":"53.35313178","lng":"-6.260472359"}},{"number":"1104","name":"Parnell Street","address":"","position":{"lat":"53.35402897","lng":"-6.257896985"}},{"number":"1105","name":"Parnell Street","address":"","position":{"lat":"53.35306232","lng":"-6.260640433"}},{"number":"1106","name":"Parnell Street","address":"","position":{"lat":"53.35321679","lng":"-6.260138404"}},{"number":"1107","name":"Ratoath Road","address":"Ratoath Road","position":{"lat":"53.36597503","lng":"-6.301603533"}},{"number":"1108","name":"Summerhill","address":"Summerhill","position":{"lat":"53.3559717","lng":"-6.252454393"}},{"number":"1109","name":"Croydon Gardens","address":"Croydon Gardens","position":{"lat":"53.3699817","lng":"-6.237619002"}},{"number":"1119","name":"O'Connell St Upper","address":"Upper O'Connell Street","position":{"lat":"53.35146448","lng":"-6.260780605"}},{"number":"1120","name":"O'Connell St Upper","address":"Upper O'Connell Street","position":{"lat":"53.35062339","lng":"-6.260424291"}},{"number":"1121","name":"O'Connell St Upper","address":"Upper O'Connell Street","position":{"lat":"53.35211562","lng":"-6.261054534"}},{"number":"1122","name":"Parnell Square Nth","address":"","position":{"lat":"53.35426284","lng":"-6.264076827"}},{"number":"1123","name":"Dublin Post Office","address":"Ormond Quay","position":{"lat":"53.3459232","lng":"-6.269116892"}},{"number":"1124","name":"Parnell Square West","address":"Parnell Square West","position":{"lat":"53.35257452","lng":"-6.264175486"}},{"number":"1125","name":"Parnell Square West, Stop 5","address":"Parnell Square West","position":{"lat":"53.35257364","lng":"-6.264115433"}},{"number":"1126","name":"Parnell Square West","address":"Parnell Square West","position":{"lat":"53.35284091","lng":"-6.264570261"}},{"number":"1127","name":"Granby Place","address":"","position":{"lat":"53.35250814","lng":"-6.263937829"}},{"number":"1128","name":"Aston Quay","address":"Aston Quay","position":{"lat":"53.34631887","lng":"-6.261711039"}},{"number":"1129","name":"Aston Quay","address":"Aston Quay","position":{"lat":"53.34646042","lng":"-6.260939259"}},{"number":"1130","name":"Aston Quay","address":"Aston Quay","position":{"lat":"53.34657961","lng":"-6.260483805"}},{"number":"1131","name":"Aston Quay","address":"Aston Quay","position":{"lat":"53.34642646","lng":"-6.261075821"}},{"number":"1132","name":"Aston Quay","address":"Aston Quay","position":{"lat":"53.3466219","lng":"-6.260301842"}},{"number":"1133","name":"Aston Quay","address":"Aston Quay","position":{"lat":"53.3467332","lng":"-6.259921807"}},{"number":"1134","name":"Civic Offices","address":"Wood Quay","position":{"lat":"53.3451068","lng":"-6.269840864"}},{"number":"1148","name":"Holles Street","address":"Merrion Square North","position":{"lat":"53.33997262","lng":"-6.247537129"}},{"number":"1149","name":"Holles Street","address":"Merrion Square North","position":{"lat":"53.33985342","lng":"-6.247376822"}},{"number":"1150","name":"Holles Street","address":"","position":{"lat":"53.34013673","lng":"-6.247695595"}},{"number":"1151","name":"Holles Street","address":"","position":{"lat":"53.34014506","lng":"-6.247650201"}},{"number":"1152","name":"Stop No. 100411","address":"","position":{"lat":"53.33992374","lng":"-6.247268814"}},{"number":"1159","name":"Victoria Road","address":"Castle Avenue","position":{"lat":"53.3621256","lng":"-6.208613255"}},{"number":"1162","name":"Guinness Storehouse","address":"Market Street","position":{"lat":"53.34164615","lng":"-6.28726704"}},{"number":"1167","name":"Britain Quay","address":"Benson Street","position":{"lat":"53.345359","lng":"-6.234294138"}},{"number":"1168","name":"Britain Quay","address":"Benson Street","position":{"lat":"53.34518899","lng":"-6.234346223"}},{"number":"1169","name":"Park Gate Street","address":"Parkgate Street","position":{"lat":"53.34791031","lng":"-6.292873904"}},{"number":"1174","name":"Upper Sherrard Street","address":"Upper Gardiner Street","position":{"lat":"53.35823793","lng":"-6.260534812"}},{"number":"1175","name":"Royal Hospital Kilmainham","address":"Military Road","position":{"lat":"53.34364786","lng":"-6.297129361"}},{"number":"1176","name":"Summerhill Bus Depot","address":"Mountjoy Place","position":{"lat":"53.35600273","lng":"-6.255803341"}},{"number":"1180","name":"Memorial Gardens","address":"Con Colbert Road","position":{"lat":"53.34295414","lng":"-6.315374679"}},{"number":"1182","name":"Glasnevin Park","address":"Ratoath Road","position":{"lat":"53.37585589","lng":"-6.310048149"}},{"number":"1191","name":"Royal Canal Avenue","address":"Royal Canal Avenue","position":{"lat":"53.37568437","lng":"-6.314443759"}},{"number":"1197","name":"Lime Street","address":"Sir John Rogerson's Quay","position":{"lat":"53.34631438","lng":"-6.242996309"}},{"number":"1198","name":"Wilton Terrace","address":"Cumberland Road","position":{"lat":"53.33363298","lng":"-6.250394749"}},{"number":"1199","name":"Wilton Terrace","address":"Wilton Terrace","position":{"lat":"53.3329617","lng":"-6.250587394"}},{"number":"1200","name":"Wilton Terrace","address":"Wilton Terrace","position":{"lat":"53.33309446","lng":"-6.250446823"}},{"number":"1201","name":"Wilton Terrace","address":"Wilton Terrace","position":{"lat":"53.33297332","lng":"-6.250767102"}},{"number":"1202","name":"Wilton Terrace","address":"Wilton terrace","position":{"lat":"53.33291528","lng":"-6.251099814"}},{"number":"1205","name":"Eden Quay","address":"Eden Quay","position":{"lat":"53.34775462","lng":"-6.258468279"}},{"number":"1206","name":"Eden Quay","address":"Eden Quay","position":{"lat":"53.34818972","lng":"-6.256873375"}},{"number":"1207","name":"Eden Quay","address":"Eden Quay","position":{"lat":"53.34801949","lng":"-6.256910362"}},{"number":"1208","name":"Eden Quay","address":"Eden Quay","position":{"lat":"53.34809836","lng":"-6.256771958"}},{"number":"1209","name":"Eden Quay","address":"Eden Quay","position":{"lat":"53.3477579","lng":"-6.258077613"}},{"number":"1210","name":"Gardiner Street","address":"Gardiner Street","position":{"lat":"53.35137702","lng":"-6.254790483"}},{"number":"1211","name":"Port Tunnel Fake","address":"Fake Bus Stop for 747 at Port Tunnel","position":{"lat":"53.35503647","lng":"-6.22381357"}},{"number":"1212","name":"Port Tunnel Fake","address":"Fake Bus Stop for 747 at Port Tunnel","position":{"lat":"53.35369654","lng":"-6.223163227"}},{"number":"1213","name":"Port Tunnel Fake","address":"Fake Bus Stop for 747 at Port Tunnel","position":{"lat":"53.35572158","lng":"-6.226970032"}},{"number":"1215","name":"Guild Street","address":"North Wall Quay","position":{"lat":"53.34769403","lng":"-6.243300061"}},{"number":"1216","name":"Convention Centre","address":"","position":{"lat":"53.34749943","lng":"-6.239853363"}},{"number":"1224","name":"North Wall Quay","address":"North Wall Quay","position":{"lat":"53.34770838","lng":"-6.242443302"}},{"number":"1225","name":"Creighton Street","address":"City Quay","position":{"lat":"53.34655661","lng":"-6.246020407"}},{"number":"1226","name":"Cumberland Road","address":"Cumberland Road","position":{"lat":"53.33372769","lng":"-6.251336854"}},{"number":"1227","name":"Cumberland Road","address":"Cumberland Road","position":{"lat":"53.33347459","lng":"-6.250626465"}},{"number":"1228","name":"Cumberland Road","address":"Cumberland Road","position":{"lat":"53.33384974","lng":"-6.251692235"}},{"number":"1229","name":"Burlington Place","address":"Burlington Place","position":{"lat":"53.33143701","lng":"-6.245304532"}},{"number":"1230","name":"Burlington Road","address":"","position":{"lat":"53.33162307","lng":"-6.245732326"}},{"number":"1233","name":"Griffith Court","address":"Philipsburgh Avenue","position":{"lat":"53.36850077","lng":"-6.239588676"}},{"number":"1234","name":"Burlington Mews","address":"Burlington Mews","position":{"lat":"53.3313307","lng":"-6.244798395"}},{"number":"1247","name":"MBNA SD","address":"St. Stephen's Green East","position":{"lat":"53.33778853","lng":"-6.256126311"}},{"number":"1248","name":"The Spire of Dublin","address":"Upper O'Connell Street","position":{"lat":"53.35020756","lng":"-6.260260969"}},{"number":"1249","name":"O'Connell St Upper","address":"Upper O'Connell Street","position":{"lat":"53.35034909","lng":"-6.260720868"}},{"number":"1250","name":"O'Connell St Upper","address":"Upper O'Connell Street","position":{"lat":"53.35013175","lng":"-6.260609547"}},{"number":"1260","name":"Fire Station","address":"Crumlin Road","position":{"lat":"53.3317521","lng":"-6.29303878"}},{"number":"1263","name":"Fleet Street","address":"Fleet Street","position":{"lat":"53.34589562","lng":"-6.258574095"}},{"number":"1264","name":"Parnell Street","address":"Parnell Street","position":{"lat":"53.35280357","lng":"-6.260771148"}},{"number":"1267","name":"Laughter Lounge","address":"","position":{"lat":"53.34775067","lng":"-6.258198071"}},{"number":"1268","name":"Laughter Lounge","address":"","position":{"lat":"53.34782516","lng":"-6.25837528"}},{"number":"1269","name":"Shelter outside Screen Cinema","address":"Hawkins Street","position":{"lat":"53.34667405","lng":"-6.257100436"}},{"number":"1270","name":"Screen Cinema","address":"Hawkins Street","position":{"lat":"53.34603364","lng":"-6.256946323"}},{"number":"1271","name":"Marlborough Street","address":"Marlborough Street","position":{"lat":"53.34849624","lng":"-6.257551823"}},{"number":"1273","name":"Dublin Ind. ESaint","address":"Slaney Road","position":{"lat":"53.37421927","lng":"-6.291055284"}},{"number":"1274","name":"Dublin Ind. ESaint","address":"Slaney Road","position":{"lat":"53.37416666","lng":"-6.291147568"}},{"number":"1283","name":"Sheriff Street","address":"Sheriff Street","position":{"lat":"53.35039408","lng":"-6.238667569"}},{"number":"1284","name":"Docklands Station","address":"Sheriff Street Upper","position":{"lat":"53.35054391","lng":"-6.238466112"}},{"number":"1287","name":"Parnell Street","address":"Parnell Street","position":{"lat":"53.35309059","lng":"-6.2601135"}},{"number":"1288","name":"Earlsfort Terrace","address":"","position":{"lat":"53.3356765","lng":"-6.257368736"}},{"number":"1289","name":"Earlsfort Terrace","address":"","position":{"lat":"53.33589494","lng":"-6.257555042"}},{"number":"1295","name":"Maple House","address":"North Circular Road","position":{"lat":"53.35776579","lng":"-6.25159973"}},{"number":"1303","name":"Simmonscourt Road","address":"Simmonscourt Road","position":{"lat":"53.32612115","lng":"-6.225600539"}},{"number":"1306","name":"East South B. Centre","address":"Pigeon House Road","position":{"lat":"53.34140757","lng":"-6.205006446"}},{"number":"1307","name":"ESB Power Station","address":"Shelley Banks Road","position":{"lat":"53.33876977","lng":"-6.192817939"}},{"number":"1308","name":"ESB Works","address":"Shelley Banks Road","position":{"lat":"53.33758281","lng":"-6.189819667"}},{"number":"1309","name":"ESB Works","address":"Shelley Banks Road","position":{"lat":"53.33765646","lng":"-6.188750333"}},{"number":"1310","name":"Sean Moore Road","address":"","position":{"lat":"53.34048525","lng":"-6.214221214"}},{"number":"1311","name":"Sean Moore Road","address":"","position":{"lat":"53.34055262","lng":"-6.214518759"}},{"number":"1312","name":"Sean Moore Road","address":"Sean Moore Road","position":{"lat":"53.34071812","lng":"-6.214166428"}},{"number":"1313","name":"Sean Moore Road","address":"Sean Moore Road","position":{"lat":"53.3405095","lng":"-6.214039984"}},{"number":"1314","name":"Ringsend Garage","address":"Ringsend Road","position":{"lat":"53.34176145","lng":"-6.232925936"}},{"number":"1315","name":"Ringsend","address":"Bridge Street","position":{"lat":"53.34190303","lng":"-6.226717443"}},{"number":"1316","name":"Irishtown Road","address":"Irishtown Road","position":{"lat":"53.33917105","lng":"-6.223121475"}},{"number":"1317","name":"Sean Moore Road","address":"Sean Moore Road","position":{"lat":"53.33902714","lng":"-6.217090421"}},{"number":"1318","name":"Farney Park","address":"Sandymount Road","position":{"lat":"53.33427533","lng":"-6.217889272"}},{"number":"1319","name":"Sandymount","address":"Sandymount Road","position":{"lat":"53.33316624","lng":"-6.216448984"}},{"number":"1320","name":"Sandymount","address":"Sandymount Road","position":{"lat":"53.33249951","lng":"-6.215741057"}},{"number":"1321","name":"Dromard Terrace","address":"Seafort Avenue","position":{"lat":"53.33399848","lng":"-6.214402146"}},{"number":"1322","name":"Gilford Road","address":"Strand Road","position":{"lat":"53.32854142","lng":"-6.20892482"}},{"number":"1323","name":"Gilford Road","address":"Strand Road","position":{"lat":"53.32872893","lng":"-6.208841895"}},{"number":"1324","name":"Star of the Sea","address":"Sandymount Road","position":{"lat":"53.33542348","lng":"-6.219538235"}},{"number":"1325","name":"Poolbeg Generation Station","address":"Pigeon House Road","position":{"lat":"53.33922219","lng":"-6.193609759"}},{"number":"1326","name":"ESB Simulater Centre","address":"Pigeon House Road","position":{"lat":"53.3414119","lng":"-6.205892349"}},{"number":"1327","name":"Irishtown Road","address":"Irishtown Road","position":{"lat":"53.33861278","lng":"-6.223054582"}},{"number":"1328","name":"Ringsend Road","address":"Ringsend Road","position":{"lat":"53.34222008","lng":"-6.236586525"}},{"number":"1329","name":"Townsend Street","address":"Townsend Street","position":{"lat":"53.34601281","lng":"-6.256136099"}},{"number":"1330","name":"South Townsend St","address":"Townsend Street","position":{"lat":"53.34602815","lng":"-6.256571049"}},{"number":"1331","name":"Pearse St Garda Stn","address":"Pearse Street","position":{"lat":"53.34547582","lng":"-6.256293194"}},{"number":"1332","name":"Pearse St Garda Stn","address":"Pearse St (Stop CU)","position":{"lat":"53.34550628","lng":"-6.256532266"}},{"number":"1335","name":"Ballyboggan Road","address":"Finglas Road","position":{"lat":"53.37533284","lng":"-6.285975603"}},{"number":"1336","name":"The Willows","address":"Finglas Road","position":{"lat":"53.37230596","lng":"-6.282369944"}},{"number":"1338","name":"St David's Terrace","address":"Blackhorse Avenue","position":{"lat":"53.35619543","lng":"-6.294000025"}},{"number":"1349","name":"Glasnevin Cemetery","address":"Finglas Road","position":{"lat":"53.36962603","lng":"-6.277278042"}},{"number":"1350","name":"St Vincent's School","address":"Finglas Road","position":{"lat":"53.36806621","lng":"-6.273208399"}},{"number":"1351","name":"St Vincent's School","address":"Finglas Road","position":{"lat":"53.36839052","lng":"-6.274502691"}},{"number":"1357","name":"Finglas Road","address":"Finglas Road","position":{"lat":"53.36677782","lng":"-6.272373909"}},{"number":"1358","name":"Glasnevin Cemetery","address":"Finglas Road","position":{"lat":"53.3699109","lng":"-6.278333551"}},{"number":"1359","name":"Slaney Road","address":"Finglas Road","position":{"lat":"53.37292584","lng":"-6.28422366"}},{"number":"1364","name":"Marino Park","address":"Marino Park","position":{"lat":"53.36611432","lng":"-6.233195418"}},{"number":"1365","name":"Marino Park","address":"Marino Park","position":{"lat":"53.36668283","lng":"-6.235170508"}},{"number":"1397","name":"Conyngham Road","address":"Conyngham Road","position":{"lat":"53.34815541","lng":"-6.301861413"}},{"number":"1398","name":"Bridgewater House","address":"Conyngham Road","position":{"lat":"53.34827828","lng":"-6.305446445"}},{"number":"1399","name":"Islandbridge","address":"South Circular Road","position":{"lat":"53.34558388","lng":"-6.308121663"}},{"number":"1400","name":"Good Counsel GAA","address":"Galtymore Road","position":{"lat":"53.33487331","lng":"-6.308981107"}},{"number":"1401","name":"Good Counsel GAA","address":"Galtymore Road","position":{"lat":"53.33479677","lng":"-6.308653787"}},{"number":"1402","name":"Phoenix Park Gate","address":"Conyngham Road","position":{"lat":"53.34815283","lng":"-6.297896094"}},{"number":"1403","name":"Civic Offices","address":"Essex Quay","position":{"lat":"53.34512939","lng":"-6.269539558"}},{"number":"1404","name":"Merchant's Quay","address":"Merchant's Quay","position":{"lat":"53.34511842","lng":"-6.273745471"}},{"number":"1405","name":"Usher's Quay","address":"Ushers Quay","position":{"lat":"53.34567841","lng":"-6.278288839"}},{"number":"1408","name":"Davitt House","address":"Galtymore Road","position":{"lat":"53.33477062","lng":"-6.316973575"}},{"number":"1409","name":"Davitt House","address":"Galtymore Road","position":{"lat":"53.3348988","lng":"-6.316503036"}},{"number":"1410","name":"Suir Road Luas","address":"Suir Road","position":{"lat":"53.3375666","lng":"-6.307492999"}},{"number":"1411","name":"Suir Road Luas","address":"Suir Road","position":{"lat":"53.33777556","lng":"-6.30764991"}},{"number":"1412","name":"Galtymore Road","address":"Galtymore Road","position":{"lat":"53.33453617","lng":"-6.306757101"}},{"number":"1413","name":"Galtymore Drive","address":"Galtymore Road","position":{"lat":"53.33452893","lng":"-6.306246853"}},{"number":"1414","name":"Benbulbin Road","address":"Galtymore Road","position":{"lat":"53.33525916","lng":"-6.313380538"}},{"number":"1415","name":"Benbulbin Road","address":"Galtymore Road","position":{"lat":"53.33530266","lng":"-6.312643038"}},{"number":"1416","name":"D'Olier Street","address":"D'Olier Street","position":{"lat":"53.34626194","lng":"-6.257808166"}},{"number":"1417","name":"D'Olier Street","address":"D'Olier Street","position":{"lat":"53.34625164","lng":"-6.257718466"}},{"number":"1418","name":"Fleet Street","address":"Fleet Street","position":{"lat":"53.34590811","lng":"-6.258198091"}},{"number":"1419","name":"Irish Times","address":"Fleet Street","position":{"lat":"53.34417003","lng":"-6.261047501"}},{"number":"1420","name":"Prince's St South","address":"Lower Sandwith Street","position":{"lat":"53.34563194","lng":"-6.249768249"}},{"number":"1421","name":"Pearse Train Stn","address":"Pearse Street","position":{"lat":"53.34386462","lng":"-6.2481585"}},{"number":"1422","name":"Erne Street","address":"Pearse Street","position":{"lat":"53.34329494","lng":"-6.245478447"}},{"number":"1423","name":"Erne Street","address":"Pearse Street","position":{"lat":"53.34337247","lng":"-6.245249978"}},{"number":"1424","name":"Pearse Square","address":"Pearse Street","position":{"lat":"53.34298915","lng":"-6.24241214"}},{"number":"1425","name":"Grand Canal Quay","address":"Pearse Street","position":{"lat":"53.34246159","lng":"-6.239550256"}},{"number":"1426","name":"Grand Canal Quay","address":"Pearse Street","position":{"lat":"53.34261585","lng":"-6.239649031"}},{"number":"1427","name":"Nassau Street","address":"Nassau Street","position":{"lat":"53.34271351","lng":"-6.256706294"}},{"number":"1428","name":"Nassau Street","address":"Nassau Street","position":{"lat":"53.34271833","lng":"-6.256420742"}},{"number":"1429","name":"Nassau Street","address":"","position":{"lat":"53.34248169","lng":"-6.255604372"}},{"number":"1430","name":"Nassau Street","address":"Nassau Street","position":{"lat":"53.34261645","lng":"-6.256214637"}},{"number":"1431","name":"Shaw Street","address":"Pearse Street","position":{"lat":"53.34475116","lng":"-6.252838258"}},{"number":"1432","name":"Lansdowne Park","address":"Northumberland Road","position":{"lat":"53.3340942","lng":"-6.236546394"}},{"number":"1433","name":"Lansdowne Road","address":"","position":{"lat":"53.33152169","lng":"-6.234595488"}},{"number":"1434","name":"American Embassy","address":"Pembroke Road","position":{"lat":"53.33033782","lng":"-6.232947749"}},{"number":"1435","name":"St Mary's Rd South","address":"","position":{"lat":"53.33494201","lng":"-6.237352312"}},{"number":"1436","name":"Haddington Road","address":"","position":{"lat":"53.33525551","lng":"-6.237279319"}},{"number":"1437","name":"Haddington Road","address":"","position":{"lat":"53.33662663","lng":"-6.238829547"}},{"number":"1438","name":"Mount Street Bridge","address":"Lower Mount Street","position":{"lat":"53.33781406","lng":"-6.241333511"}},{"number":"1439","name":"Mount Street Lower","address":"Lower Mount Street","position":{"lat":"53.33858469","lng":"-6.243614462"}},{"number":"1440","name":"Mount Street Bridge","address":"Lower Mount Street","position":{"lat":"53.33811712","lng":"-6.241771553"}},{"number":"1441","name":"Mount Street Lower","address":"Lower Mount Street","position":{"lat":"53.33881345","lng":"-6.24389039"}},{"number":"1442","name":"Lea Road","address":"Strand Road","position":{"lat":"53.33071253","lng":"-6.209254264"}},{"number":"1443","name":"Lea Road","address":"Strand Road","position":{"lat":"53.33163396","lng":"-6.210161605"}},{"number":"1444","name":"St John's Road","address":"St. John's Road","position":{"lat":"53.32509766","lng":"-6.207642882"}},{"number":"1445","name":"Sandymount Tower","address":"Strand Road","position":{"lat":"53.32565029","lng":"-6.207334472"}},{"number":"1446","name":"St John's Road","address":"St. John's Road East","position":{"lat":"53.32472609","lng":"-6.209234772"}},{"number":"1447","name":"St John's Church","address":"Park Avenue","position":{"lat":"53.32420587","lng":"-6.212304061"}},{"number":"1448","name":"Stop No. 7000","address":"","position":{"lat":"53.32445872","lng":"-6.211783067"}},{"number":"1449","name":"Tritonville Road","address":"Tritonville Road","position":{"lat":"53.33690389","lng":"-6.222374797"}},{"number":"1450","name":"Ringsend Road","address":"Ringsend Road","position":{"lat":"53.34194006","lng":"-6.235276454"}},{"number":"1451","name":"Pearse Square","address":"Pearse Street","position":{"lat":"53.34278556","lng":"-6.242015007"}},{"number":"1452","name":"Ringsend","address":"Bridge Street","position":{"lat":"53.34173363","lng":"-6.227415321"}},{"number":"1453","name":"Star of the Sea","address":"Sandymount Road","position":{"lat":"53.33529008","lng":"-6.219633889"}},{"number":"1454","name":"Farney Park","address":"Sandymount Road","position":{"lat":"53.33450886","lng":"-6.218480172"}},{"number":"1455","name":"Tritonville Road","address":"Tritonville Road","position":{"lat":"53.33770222","lng":"-6.222266505"}},{"number":"1456","name":"Bath Street","address":"Irishtown Road","position":{"lat":"53.33999222","lng":"-6.223943347"}},{"number":"1457","name":"Parnell Square East","address":"Parnell Square East","position":{"lat":"53.35336157","lng":"-6.26205538"}},{"number":"1458","name":"Parnell Square East","address":"Parnell Square East","position":{"lat":"53.35353531","lng":"-6.262258627"}},{"number":"1459","name":"Parnell Square East","address":"Parnell Square East","position":{"lat":"53.35429421","lng":"-6.26314414"}},{"number":"1460","name":"Parnell Square East","address":"Parnell Square East","position":{"lat":"53.35405629","lng":"-6.262853361"}},{"number":"1461","name":"Parnell Square East","address":"Parnell Square East","position":{"lat":"53.35374563","lng":"-6.262505454"}},{"number":"1462","name":"Parnell Square East","address":"Parnell Square East","position":{"lat":"53.35394696","lng":"-6.262752649"}},{"number":"1463","name":"O'Connell St Upper","address":"Upper O'Connell Street","position":{"lat":"53.35051187","lng":"-6.260789348"}},{"number":"1464","name":"O'Connell St Upper","address":"Upper O'Connell Street","position":{"lat":"53.35090996","lng":"-6.26096842"}},{"number":"1465","name":"O'Connell St Upper","address":"Upper O'Connell Street","position":{"lat":"53.35082233","lng":"-6.26050632"}},{"number":"1466","name":"O'Connell Bridge","address":"Lower O'Connell Street","position":{"lat":"53.34724742","lng":"-6.258819401"}},{"number":"1469","name":"Griffith Avenue","address":"Griffith Avenue","position":{"lat":"53.37401087","lng":"-6.243885374"}},{"number":"1487","name":"Grace Park Road","address":"Grace Park Road","position":{"lat":"53.37572351","lng":"-6.242387018"}},{"number":"1490","name":"Bachelors Walk","address":"","position":{"lat":"53.3469264","lng":"-6.262076846"}},{"number":"1491","name":"Bachelors Walk","address":"","position":{"lat":"53.34726493","lng":"-6.260636145"}},{"number":"1492","name":"Westmoreland Street","address":"Westmoreland Street","position":{"lat":"53.34554661","lng":"-6.259294247"}},{"number":"1493","name":"Westmoreland Street","address":"Westmoreland Street","position":{"lat":"53.34624485","lng":"-6.259100579"}},{"number":"1494","name":"Westmoreland Street","address":"Westmoreland Street","position":{"lat":"53.34596902","lng":"-6.259292057"}},{"number":"1495","name":"Bachelors Walk","address":"Bachelors Walk","position":{"lat":"53.3469069","lng":"-6.261972497"}},{"number":"1496","name":"Oscar Square","address":"Oscar Square","position":{"lat":"53.33677119","lng":"-6.279533657"}},{"number":"1497","name":"Wellington Quay","address":"","position":{"lat":"53.34547648","lng":"-6.266206155"}},{"number":"1498","name":"Crampton Quay","address":"Crampton Quay","position":{"lat":"53.34613021","lng":"-6.262334531"}},{"number":"1499","name":"D'Olier Street","address":"D'Olier Street","position":{"lat":"53.3466482","lng":"-6.258408239"}},{"number":"1500","name":"D'Olier Street","address":"D'Olier Street","position":{"lat":"53.34658116","lng":"-6.258125591"}},{"number":"1501","name":"Abbey Street Lower","address":"Lower Abbey Street","position":{"lat":"53.34885817","lng":"-6.257101455"}},{"number":"1502","name":"Abbey Street Lower","address":"Lower Abbey Street","position":{"lat":"53.34893595","lng":"-6.256887989"}},{"number":"1503","name":"Abbey Street","address":"","position":{"lat":"53.34889016","lng":"-6.256829774"}},{"number":"1504","name":"Irish Life","address":"Lower Abbey Street","position":{"lat":"53.34892739","lng":"-6.256302523"}},{"number":"1505","name":"Irish Life","address":"Lower Abbey Street","position":{"lat":"53.34919728","lng":"-6.255089827"}},{"number":"1506","name":"Abbey Street Lower","address":"Lower Abbey Street","position":{"lat":"53.34903519","lng":"-6.256298123"}},{"number":"1507","name":"Abbey Street","address":"","position":{"lat":"53.34894514","lng":"-6.256286778"}},{"number":"1508","name":"Irish Life","address":"","position":{"lat":"53.34911514","lng":"-6.255618916"}},{"number":"1509","name":"Walnut Rise","address":"Phibsboro Road","position":{"lat":"53.36012069","lng":"-6.272583149"}},{"number":"1510","name":"Walnut Rise","address":"","position":{"lat":"53.36014786","lng":"-6.272597075"}},{"number":"1511","name":"Lambay Road","address":"Phibsboro Road","position":{"lat":"53.35716744","lng":"-6.273468815"}},{"number":"1512","name":"Prospect Way","address":"Prospect Way","position":{"lat":"53.3674227","lng":"-6.271596444"}},{"number":"1513","name":"Botanic Road","address":"Botanic Road","position":{"lat":"53.3682911","lng":"-6.270118627"}},{"number":"1514","name":"St Teresa's Place","address":"Botanic Road","position":{"lat":"53.36810094","lng":"-6.270021139"}},{"number":"1515","name":"Fairfield Road","address":"Botanic Road","position":{"lat":"53.37008009","lng":"-6.268903977"}},{"number":"1516","name":"Whitehall College","address":"Swords Road","position":{"lat":"53.3763928","lng":"-6.250010028"}},{"number":"1517","name":"Constitution Hill","address":"Phibsboro Road","position":{"lat":"53.35501178","lng":"-6.273570979"}},{"number":"1518","name":"Phibsborough SC","address":"Phibsboro Road","position":{"lat":"53.36162539","lng":"-6.27283781"}},{"number":"1531","name":"Met Eireann","address":"Glasnevin Hill","position":{"lat":"53.37573277","lng":"-6.270087554"}},{"number":"1532","name":"Met Eireann","address":"Glasnevin Hill","position":{"lat":"53.37564011","lng":"-6.269895916"}},{"number":"1533","name":"Botanic Gardens","address":"Botanic Road","position":{"lat":"53.37195526","lng":"-6.269293827"}},{"number":"1534","name":"Botanic Gardens","address":"Botanic Road","position":{"lat":"53.37231593","lng":"-6.268753185"}},{"number":"1535","name":"Botanic Road","address":"Botanic Road","position":{"lat":"53.36970368","lng":"-6.268979354"}},{"number":"1541","name":"Grace Park Road","address":"Grace Park Road","position":{"lat":"53.37461741","lng":"-6.242958619"}},{"number":"1542","name":"Sion Hill Road","address":"Grace Park Road","position":{"lat":"53.3761711","lng":"-6.242263371"}},{"number":"1583","name":"Home Farm FC","address":"Griffith Avenue","position":{"lat":"53.37605022","lng":"-6.25116639"}},{"number":"1588","name":"St Thomas Road","address":"St. Thomas Road","position":{"lat":"53.33638298","lng":"-6.279414136"}},{"number":"1589","name":"Rutledge Terrace","address":"Rutledge Terrace","position":{"lat":"53.33405842","lng":"-6.282766099"}},{"number":"1590","name":"Slievenamon Road","address":"Slievenamon Road","position":{"lat":"53.33268166","lng":"-6.305914642"}},{"number":"1591","name":"Slievenamon Road","address":"Slievenamon Road","position":{"lat":"53.33257216","lng":"-6.305798862"}},{"number":"1592","name":"Keeper Road","address":"Keeper Road","position":{"lat":"53.33141693","lng":"-6.29977873"}},{"number":"1593","name":"Keeper Road","address":"Keeper Road","position":{"lat":"53.33138805","lng":"-6.299014132"}},{"number":"1594","name":"Mount Temple School","address":"Malahide Road","position":{"lat":"53.36895612","lng":"-6.226029664"}},{"number":"1595","name":"Brian Road","address":"Malahide Road","position":{"lat":"53.36798165","lng":"-6.226986846"}},{"number":"1596","name":"Marino Church","address":"Griffith Avenue","position":{"lat":"53.37015867","lng":"-6.231961007"}},{"number":"1597","name":"Marino Church","address":"Griffith Avenue","position":{"lat":"53.37025739","lng":"-6.232558057"}},{"number":"1598","name":"Marino Institute","address":"Griffith Avenue","position":{"lat":"53.37170858","lng":"-6.236480645"}},{"number":"1599","name":"Turlogh Parade","address":"Griffith Avenue","position":{"lat":"53.37108886","lng":"-6.23468777"}},{"number":"1600","name":"Turlogh Parade","address":"Griffith Avenue","position":{"lat":"53.37121341","lng":"-6.235208627"}},{"number":"1601","name":"Philipsburgh Avenue","address":"Philipsburgh Avenue","position":{"lat":"53.36404582","lng":"-6.239802417"}},{"number":"1602","name":"Philipsburgh Avenue","address":"Philipsburgh Avenue","position":{"lat":"53.36369771","lng":"-6.239967029"}},{"number":"1603","name":"Morrogh Terrace","address":"Philipsburgh Avenue","position":{"lat":"53.37097478","lng":"-6.238524809"}},{"number":"1604","name":"Marino Institute","address":"Griffith Avenue","position":{"lat":"53.37181926","lng":"-6.23667145"}},{"number":"1605","name":"Brian Road","address":"Brian Road","position":{"lat":"53.36585335","lng":"-6.237428779"}},{"number":"1606","name":"Brian Road","address":"Brian Road","position":{"lat":"53.36577949","lng":"-6.237296587"}},{"number":"1607","name":"Tara Street Station","address":"","position":{"lat":"53.34742107","lng":"-6.254095927"}},{"number":"1608","name":"Croydon Park","address":"Croydon Gardens","position":{"lat":"53.37067302","lng":"-6.235741941"}},{"number":"1609","name":"Croydon Park Avenue","address":"Croydon Park Avenue","position":{"lat":"53.36875594","lng":"-6.235565697"}},{"number":"1610","name":"Marino Green","address":"Marino Park","position":{"lat":"53.36714812","lng":"-6.233813838"}},{"number":"1611","name":"Melrose Avenue","address":"Philipsburgh Avenue","position":{"lat":"53.36505387","lng":"-6.239896097"}},{"number":"1612","name":"Islandbridge","address":"South Circular Road","position":{"lat":"53.34553232","lng":"-6.30828892"}},{"number":"1613","name":"Conyngham Road","address":"Conyngham Road","position":{"lat":"53.34842947","lng":"-6.305966169"}},{"number":"1614","name":"Phoenix Park Gate","address":"Conyngham Road","position":{"lat":"53.34830598","lng":"-6.298550899"}},{"number":"1615","name":"Slievenamon Road","address":"Slievenamon Road","position":{"lat":"53.33538512","lng":"-6.30577746"}},{"number":"1616","name":"Slievenamon Road","address":"Slievenamon Road","position":{"lat":"53.33565738","lng":"-6.305961878"}},{"number":"1617","name":"Ormond Quay Upper","address":"Upper Ormond Quay","position":{"lat":"53.34591596","lng":"-6.269237344"}},{"number":"1618","name":"Ormond Quay Upper","address":"Upper Ormond Quay","position":{"lat":"53.34569345","lng":"-6.270628173"}},{"number":"1619","name":"Four Courts","address":"Inns Quay","position":{"lat":"53.34564609","lng":"-6.272943126"}},{"number":"1620","name":"Parkgate Street","address":"Parkgate Street","position":{"lat":"53.34794792","lng":"-6.292361704"}},{"number":"1621","name":"National Museum","address":"Wolfe Tone Quay","position":{"lat":"53.34709354","lng":"-6.286057336"}},{"number":"1622","name":"Sarsfield Quay","address":"Wolfe Tone Quay","position":{"lat":"53.34700183","lng":"-6.28467916"}},{"number":"1623","name":"Claude Road","address":"Whitworth Road","position":{"lat":"53.3632915","lng":"-6.266249162"}},{"number":"1624","name":"David Road","address":"Whitworth Road","position":{"lat":"53.36370154","lng":"-6.267870355"}},{"number":"1625","name":"David Road","address":"Whitworth Road","position":{"lat":"53.36374492","lng":"-6.267763412"}},{"number":"1626","name":"Whitworth Road","address":"Whitworth Road","position":{"lat":"53.3643194","lng":"-6.270189391"}},{"number":"1627","name":"St Brigid's Rd Lower","address":"Whitworth Road","position":{"lat":"53.36256033","lng":"-6.262943149"}},{"number":"1628","name":"Drumcliffe Road","address":"Carnlough Road","position":{"lat":"53.36455191","lng":"-6.293831436"}},{"number":"1629","name":"Drumcliffe Road","address":"Carnlough Road","position":{"lat":"53.36362946","lng":"-6.294063635"}},{"number":"1630","name":"Binns Bridge","address":"Whitworth Road","position":{"lat":"53.36197935","lng":"-6.260697936"}},{"number":"1631","name":"Fitzwilliam Place","address":"","position":{"lat":"53.33314766","lng":"-6.254078364"}},{"number":"1632","name":"Fitzwilliam Place","address":"","position":{"lat":"53.33345374","lng":"-6.254110908"}},{"number":"1633","name":"Grand Parade","address":"","position":{"lat":"53.33115429","lng":"-6.252373034"}},{"number":"1634","name":"Leeson St Upper","address":"","position":{"lat":"53.33160145","lng":"-6.252219619"}},{"number":"1635","name":"Sussex Road","address":"Sussex Road","position":{"lat":"53.32972799","lng":"-6.248887998"}},{"number":"1636","name":"Stephen's Green East","address":"St. Stephen's Green","position":{"lat":"53.33763187","lng":"-6.255862398"}},{"number":"1637","name":"Claude Road","address":"Whitworth Road","position":{"lat":"53.36324335","lng":"-6.265409666"}},{"number":"1638","name":"St Patrick's Road","address":"Whitworth Road","position":{"lat":"53.3621222","lng":"-6.260632015"}},{"number":"1639","name":"Stephen's Green East","address":"St. Stephen's Green","position":{"lat":"53.33700243","lng":"-6.25645872"}},{"number":"1640","name":"Stephen's Green East","address":"St. Stephen's Green","position":{"lat":"53.33725198","lng":"-6.256313389"}},{"number":"1641","name":"Bannow Road","address":"Carnlough Road","position":{"lat":"53.36962437","lng":"-6.29217098"}},{"number":"1642","name":"Kilkieran Road","address":"Carnlough Road","position":{"lat":"53.36823516","lng":"-6.29118965"}},{"number":"1643","name":"Mater Hospital","address":"","position":{"lat":"53.35964622","lng":"-6.269612438"}},{"number":"1644","name":"Berkeley Road","address":"","position":{"lat":"53.36001822","lng":"-6.269852786"}},{"number":"1645","name":"O'Connell Avenue","address":"Berkeley Road","position":{"lat":"53.35848112","lng":"-6.269223945"}},{"number":"1646","name":"Blessington Street","address":"Blessington Street","position":{"lat":"53.35630402","lng":"-6.265991985"}},{"number":"1647","name":"St Peter's Church","address":"North Circular Road","position":{"lat":"53.36054002","lng":"-6.276097049"}},{"number":"1648","name":"Ellesmere Avenue","address":"North Circular Road","position":{"lat":"53.35709986","lng":"-6.289997641"}},{"number":"1649","name":"Annamore Road","address":"North Circular Road","position":{"lat":"53.3574705","lng":"-6.287639082"}},{"number":"1650","name":"Annamore Road","address":"North Circular Road","position":{"lat":"53.35767215","lng":"-6.287285447"}},{"number":"1651","name":"Annamore Parade","address":"North Circular Road","position":{"lat":"53.35826636","lng":"-6.284226743"}},{"number":"1652","name":"Annamore Parade","address":"North Circular Road","position":{"lat":"53.35806515","lng":"-6.284610429"}},{"number":"1653","name":"Charleville Road","address":"North Circular Road","position":{"lat":"53.35919005","lng":"-6.280959374"}},{"number":"1654","name":"Charleville Road","address":"North Circular Road","position":{"lat":"53.35886871","lng":"-6.281738551"}},{"number":"1655","name":"Broombridge Station","address":"Carnlough Road","position":{"lat":"53.37121786","lng":"-6.301169507"}},{"number":"1656","name":"Broombridge Station","address":"Carnlough Road","position":{"lat":"53.37104483","lng":"-6.299748678"}},{"number":"1657","name":"Carnlough Road","address":"Carnlough Road","position":{"lat":"53.37139257","lng":"-6.303341717"}},{"number":"1658","name":"Carnlough Road","address":"Carnlough Road","position":{"lat":"53.37130615","lng":"-6.30358561"}},{"number":"1659","name":"St Finbar's Road","address":"Carnlough Road","position":{"lat":"53.37042944","lng":"-6.296932826"}},{"number":"1660","name":"St Finbar's Road","address":"Carnlough Road","position":{"lat":"53.3703969","lng":"-6.295912195"}},{"number":"1661","name":"Bannow Road","address":"Carnlough Road","position":{"lat":"53.36974785","lng":"-6.293263095"}},{"number":"1664","name":"Chelmsford Road","address":"Chelmsford Road","position":{"lat":"53.32500441","lng":"-6.253465109"}},{"number":"1665","name":"Chelmsford Avenue","address":"Chelmsford Road","position":{"lat":"53.32612978","lng":"-6.251137178"}},{"number":"1666","name":"Chelmsford Road","address":"Chelmsford Road","position":{"lat":"53.32558343","lng":"-6.252495656"}},{"number":"1667","name":"Appian Way","address":"Appian Way","position":{"lat":"53.32780911","lng":"-6.247975704"}},{"number":"1668","name":"Appian Way","address":"Appian Way","position":{"lat":"53.32741744","lng":"-6.248847515"}},{"number":"1681","name":"Marlborough Street","address":"Marlborough Street","position":{"lat":"53.34919076","lng":"-6.257718768"}},{"number":"1682","name":"Eden Quay","address":"Eden Quay","position":{"lat":"53.34795004","lng":"-6.257078422"}},{"number":"1683","name":"Quay Wall","address":"Eden Quay","position":{"lat":"53.34760257","lng":"-6.258519539"}},{"number":"1684","name":"Quay Wall","address":"Eden Quay","position":{"lat":"53.34780588","lng":"-6.258285943"}},{"number":"1685","name":"Liberty Hall","address":"Eden Quay","position":{"lat":"53.3482092","lng":"-6.255746031"}},{"number":"1686","name":"Eden Quay","address":"Eden Quay","position":{"lat":"53.34823133","lng":"-6.25603052"}},{"number":"1687","name":"Eden Quay","address":"Eden Quay","position":{"lat":"53.34820877","lng":"-6.256331854"}},{"number":"1688","name":"Eden Quay","address":"","position":{"lat":"53.34825609","lng":"-6.255879303"}},{"number":"1689","name":"Merrion Road","address":"Merrion Road","position":{"lat":"53.32769959","lng":"-6.22597042"}},{"number":"1690","name":"Newcomen Bridge","address":"North Strand Road","position":{"lat":"53.35611171","lng":"-6.244846799"}},{"number":"1691","name":"Amiens Street","address":"Amiens Street","position":{"lat":"53.35404463","lng":"-6.247305333"}},{"number":"1692","name":"Portland Row","address":"Amiens Street","position":{"lat":"53.35360828","lng":"-6.248194548"}},{"number":"1693","name":"Talbot Street","address":"Talbot Street","position":{"lat":"53.35051778","lng":"-6.256267648"}},{"number":"1694","name":"Gardiner Street","address":"","position":{"lat":"53.35045051","lng":"-6.255969965"}},{"number":"1695","name":"Marino Crescent Park","address":"Howth Road","position":{"lat":"53.36461747","lng":"-6.226810998"}},{"number":"1696","name":"Copeland Avenue","address":"Howth Road","position":{"lat":"53.36586987","lng":"-6.223994026"}},{"number":"1697","name":"Howth Road","address":"Howth Road","position":{"lat":"53.36496088","lng":"-6.226330911"}},{"number":"1698","name":"Fairview","address":"Fairview","position":{"lat":"53.36369279","lng":"-6.233551068"}},{"number":"1699","name":"Annesley Bridge","address":"Annesley Bridge Road","position":{"lat":"53.36190642","lng":"-6.237351299"}},{"number":"1700","name":"Annesley Bridge Road","address":"Annesley Bridge Road","position":{"lat":"53.36163705","lng":"-6.23797846"}},{"number":"1729","name":"Killester","address":"Howth Road","position":{"lat":"53.37112731","lng":"-6.204132622"}},{"number":"1730","name":"Killester","address":"Howth Road","position":{"lat":"53.37122454","lng":"-6.204023329"}},{"number":"1731","name":"Collins Avenue","address":"Howth Road","position":{"lat":"53.37059425","lng":"-6.207536495"}},{"number":"1732","name":"Ashbrook","address":"Howth Road","position":{"lat":"53.3683623","lng":"-6.211537455"}},{"number":"1733","name":"Hollybrook Park","address":"Howth Road","position":{"lat":"53.3667558","lng":"-6.218908011"}},{"number":"1736","name":"Saint Peters School","address":"Collins Avenue East","position":{"lat":"53.37476354","lng":"-6.21705581"}},{"number":"1737","name":"Donnycarney Church","address":"Malahide Road","position":{"lat":"53.37496447","lng":"-6.219677694"}},{"number":"1738","name":"Donnycarney Church","address":"Malahide Road","position":{"lat":"53.37471925","lng":"-6.219507562"}},{"number":"1741","name":"Donnycarney Road","address":"Malahide Road","position":{"lat":"53.37346635","lng":"-6.22107782"}},{"number":"1742","name":"Parnell Park","address":"Collins Avenue East","position":{"lat":"53.37468607","lng":"-6.216082092"}},{"number":"1743","name":"Malahide Road","address":"Malahide Road","position":{"lat":"53.36631701","lng":"-6.228678905"}},{"number":"1744","name":"Casino Park","address":"Malahide Road","position":{"lat":"53.37246632","lng":"-6.222126461"}},{"number":"1745","name":"Nazareth House","address":"Malahide Road","position":{"lat":"53.37071684","lng":"-6.224153053"}},{"number":"1746","name":"Mount Temple School","address":"Malahide Road","position":{"lat":"53.37023313","lng":"-6.224263348"}},{"number":"1747","name":"Malahide Road","address":"","position":{"lat":"53.37022437","lng":"-6.22427874"}},{"number":"1748","name":"Marino Crescent Park","address":"Malahide Road","position":{"lat":"53.36457498","lng":"-6.229397317"}},{"number":"1753","name":"Ennafort Road","address":"Howth Road","position":{"lat":"53.37635465","lng":"-6.190790859"}},{"number":"1754","name":"All Saints Road","address":"All Saints Road","position":{"lat":"53.37628367","lng":"-6.189666567"}},{"number":"1760","name":"American Embassy","address":"","position":{"lat":"53.33080095","lng":"-6.233874524"}},{"number":"1761","name":"Lansdowne Park","address":"Northumberland Road","position":{"lat":"53.33309856","lng":"-6.236076947"}},{"number":"1770","name":"Mobhi Road","address":"Mobhi Road","position":{"lat":"53.37067017","lng":"-6.268068507"}},{"number":"1771","name":"Tolka Bridge","address":"Mobhi Road","position":{"lat":"53.37313859","lng":"-6.265984466"}},{"number":"1779","name":"Tolka Bridge","address":"Mobhi Road","position":{"lat":"53.37248023","lng":"-6.265830862"}},{"number":"1789","name":"Na Fianna GAA Club","address":"Mobhi Road","position":{"lat":"53.37565885","lng":"-6.264995283"}},{"number":"1790","name":"Na Fianna GAA Club","address":"Mobhi Road","position":{"lat":"53.3753714","lng":"-6.265006968"}},{"number":"1796","name":"Rialto Church","address":"South Circular Road","position":{"lat":"53.33563931","lng":"-6.296487415"}},{"number":"1797","name":"Rialto Bridge","address":"South Circular Road","position":{"lat":"53.33805492","lng":"-6.29948463"}},{"number":"1798","name":"Rialto Luas","address":"South Circular Road","position":{"lat":"53.3373397","lng":"-6.299122653"}},{"number":"1799","name":"Mayfield Road","address":"South Circular Road","position":{"lat":"53.33886722","lng":"-6.30224552"}},{"number":"1800","name":"Mayfield Road","address":"South Circular Road","position":{"lat":"53.33882788","lng":"-6.301376082"}},{"number":"1801","name":"Hybreasal House","address":"South Circular Road","position":{"lat":"53.33918858","lng":"-6.305251245"}},{"number":"1802","name":"St Andrews Centre","address":"South Circular Road","position":{"lat":"53.33516036","lng":"-6.294419284"}},{"number":"1803","name":"National Stadium","address":"South Circular Road","position":{"lat":"53.33120396","lng":"-6.279907873"}},{"number":"1804","name":"Dolphin Avenue","address":"South Circular Road","position":{"lat":"53.33234588","lng":"-6.28806012"}},{"number":"1805","name":"Dolphin Avenue","address":"South Circular Road","position":{"lat":"53.33227108","lng":"-6.286606663"}},{"number":"1806","name":"Dolphins Barn Church","address":"South Circular Road","position":{"lat":"53.33290153","lng":"-6.290455313"}},{"number":"1807","name":"Dolphins Barn Church","address":"South Circular Road","position":{"lat":"53.33317317","lng":"-6.290594602"}},{"number":"1808","name":"Dolphins Barn Church","address":"","position":{"lat":"53.33312035","lng":"-6.290671791"}},{"number":"1809","name":"Bulfin Road","address":"Bulfin Road","position":{"lat":"53.33955616","lng":"-6.312159732"}},{"number":"1810","name":"South Circular Road","address":"Bulfin Road","position":{"lat":"53.33950791","lng":"-6.308752672"}},{"number":"1811","name":"Stop No. 7434","address":"","position":{"lat":"53.33960848","lng":"-6.310776055"}},{"number":"1812","name":"South Circular Road","address":"South Circular Road","position":{"lat":"53.33916337","lng":"-6.304741655"}},{"number":"1813","name":"Suir Road","address":"Suir Road","position":{"lat":"53.33887617","lng":"-6.307936706"}},{"number":"1814","name":"Stephen's Road","address":"Goldenbridge Avenue","position":{"lat":"53.33777476","lng":"-6.312034865"}},{"number":"1815","name":"Goldenbridge Avenue","address":"Goldenbridge Avenue","position":{"lat":"53.3381037","lng":"-6.309874446"}},{"number":"1816","name":"Southern Cross Ave","address":"Southern Cross Avenue","position":{"lat":"53.33921771","lng":"-6.313014071"}},{"number":"1817","name":"Raymond Street","address":"South Circular Road","position":{"lat":"53.33198339","lng":"-6.276618277"}},{"number":"1818","name":"St Claire's NS","address":"Harold's Cross Road","position":{"lat":"53.32717107","lng":"-6.277607963"}},{"number":"1819","name":"Harold's Cross Road","address":"Harold's Cross Road","position":{"lat":"53.32844661","lng":"-6.276310441"}},{"number":"1820","name":"Le Vere Terrace","address":"Harold's Cross Road","position":{"lat":"53.32879608","lng":"-6.276236296"}},{"number":"1821","name":"Clanbrassil St Upper","address":"Upr. Clanbrassil Street","position":{"lat":"53.33073105","lng":"-6.275167319"}},{"number":"1822","name":"Clanbrassil St Upper","address":"Upr. Clanbrassil Street","position":{"lat":"53.33118301","lng":"-6.275344272"}},{"number":"1823","name":"Spencer St South","address":"South Circular Road","position":{"lat":"53.33224954","lng":"-6.273889833"}},{"number":"1824","name":"Longwood Avenue","address":"South Circular Road","position":{"lat":"53.33212936","lng":"-6.273038833"}},{"number":"1830","name":"Whitefriars Street","address":"Aungier Street","position":{"lat":"53.34009625","lng":"-6.265838755"}},{"number":"1831","name":"Exchequer Street","address":"South Gate George's Street","position":{"lat":"53.3425679","lng":"-6.26459703"}},{"number":"1832","name":"Dame Street","address":"Dame Street","position":{"lat":"53.34430472","lng":"-6.262889389"}},{"number":"1833","name":"Dame Street","address":"","position":{"lat":"53.34426354","lng":"-6.262530601"}},{"number":"1834","name":"Aungier Street","address":"Aungier Street","position":{"lat":"53.33904809","lng":"-6.266076515"}},{"number":"1835","name":"Aungier Place","address":"","position":{"lat":"53.33904591","lng":"-6.265926429"}},{"number":"1836","name":"Harrington Street","address":"Harrington Street","position":{"lat":"53.3325611","lng":"-6.267480812"}},{"number":"1837","name":"Camden Street Lower","address":"Upper Camden Street","position":{"lat":"53.33444543","lng":"-6.265407334"}},{"number":"1838","name":"Pleasants Street","address":"Camden Street","position":{"lat":"53.33600954","lng":"-6.265418938"}},{"number":"1839","name":"Parkview House","address":"Crumlin Road","position":{"lat":"53.33075813","lng":"-6.296441702"}},{"number":"1840","name":"Clogher Road","address":"Clogher Road","position":{"lat":"53.32955262","lng":"-6.284448499"}},{"number":"1841","name":"Parnell Road","address":"Clogher Road","position":{"lat":"53.32982168","lng":"-6.284407673"}},{"number":"1842","name":"Sperrin Road","address":"Mourne Road","position":{"lat":"53.33259321","lng":"-6.316173419"}},{"number":"1843","name":"Sperrin Road","address":"Mourne Road","position":{"lat":"53.33244325","lng":"-6.316374521"}},{"number":"1848","name":"Benbulbin Road","address":"Mourne Road","position":{"lat":"53.33334761","lng":"-6.312314801"}},{"number":"1849","name":"Belbulbin Road","address":"Mourne Road","position":{"lat":"53.3335738","lng":"-6.311149686"}},{"number":"1850","name":"Keeper Road","address":"Keeper Road","position":{"lat":"53.33199245","lng":"-6.302323379"}},{"number":"1851","name":"Brickfield Drive","address":"Keeper Road","position":{"lat":"53.33205103","lng":"-6.303282004"}},{"number":"1852","name":"Brickfields Park","address":"Mourne Road","position":{"lat":"53.33349874","lng":"-6.308389825"}},{"number":"1853","name":"Brickfields Park","address":"Mourne Road","position":{"lat":"53.33344139","lng":"-6.308782494"}},{"number":"1856","name":"St Johns Ambulance","address":"Upper Leeson Street","position":{"lat":"53.32971936","lng":"-6.250750108"}},{"number":"1865","name":"Ranelagh","address":"","position":{"lat":"53.32442927","lng":"-6.252858085"}},{"number":"1866","name":"Ranelagh","address":"Ranelagh","position":{"lat":"53.32420775","lng":"-6.252461807"}},{"number":"1872","name":"Fitzwilliam Street","address":"Lower Baggot Street","position":{"lat":"53.33657108","lng":"-6.248487503"}},{"number":"1873","name":"Fitzwilliam Street","address":"Lower Baggot Street","position":{"lat":"53.33645673","lng":"-6.248657371"}},{"number":"1874","name":"Baggot St Lower","address":"Lower Baggot Street","position":{"lat":"53.33530854","lng":"-6.246977564"}},{"number":"1875","name":"Herbert Street","address":"Lower Baggot Street","position":{"lat":"53.33532055","lng":"-6.246571635"}},{"number":"1876","name":"Baggot St Upper","address":"Upper Baggot Street","position":{"lat":"53.33367166","lng":"-6.24446202"}},{"number":"1877","name":"Baggot St Upper","address":"Upper Baggot Street","position":{"lat":"53.33358382","lng":"-6.244600767"}},{"number":"1878","name":"Embassy Romania","address":"Waterloo Road","position":{"lat":"53.33101977","lng":"-6.244435796"}},{"number":"1879","name":"Embassy Romania","address":"Waterloo Road","position":{"lat":"53.33078379","lng":"-6.244280327"}},{"number":"1880","name":"Kildare Street","address":"Kildare Street","position":{"lat":"53.33993081","lng":"-6.255723518"}},{"number":"1881","name":"Huguenot Cemetery","address":"Merrion Row","position":{"lat":"53.33850954","lng":"-6.255030666"}},{"number":"1882","name":"Baggot St Lower","address":"Lower Baggot Street","position":{"lat":"53.3376207","lng":"-6.250802147"}},{"number":"1883","name":"Pembroke St Lower","address":"Lower Pembroke Street","position":{"lat":"53.3371059","lng":"-6.251859373"}},{"number":"1891","name":"Waterloo Road","address":"Waterloo Road","position":{"lat":"53.32868874","lng":"-6.245447362"}},{"number":"1892","name":"Wellington Lane","address":"Waterloo Road","position":{"lat":"53.32882805","lng":"-6.245141368"}},{"number":"1893","name":"Royal Hospital","address":"Morehampton Road","position":{"lat":"53.32639976","lng":"-6.242598746"}},{"number":"1894","name":"Donnybrook Village","address":"Morehampton Road","position":{"lat":"53.32348971","lng":"-6.239085447"}},{"number":"1896","name":"Donnybrook Village","address":"Morehampton Road","position":{"lat":"53.32408134","lng":"-6.23958651"}},{"number":"1902","name":"St Bridgets Church","address":"Howth Road","position":{"lat":"53.37470898","lng":"-6.19786466"}},{"number":"1903","name":"St Brigid's Church","address":"Howth Road","position":{"lat":"53.37503806","lng":"-6.197039132"}},{"number":"1918","name":"Phibsborough PO","address":"North Circular Road","position":{"lat":"53.36072601","lng":"-6.274662164"}},{"number":"1919","name":"Rathdown Road","address":"North Circular Road","position":{"lat":"53.35947664","lng":"-6.279640701"}},{"number":"1920","name":"Dawson Street","address":"","position":{"lat":"53.340752","lng":"-6.258408262"}},{"number":"1921","name":"Dawson Street","address":"","position":{"lat":"53.34085979","lng":"-6.258403869"}},{"number":"1922","name":"Duke Street","address":"","position":{"lat":"53.34060038","lng":"-6.258489531"}},{"number":"1923","name":"Berkeley Road","address":"Berkeley Road","position":{"lat":"53.35874005","lng":"-6.269724278"}},{"number":"1924","name":"Montpellier Gardens","address":"Montpelier Gardens","position":{"lat":"53.35031038","lng":"-6.295406721"}},{"number":"1925","name":"Jerome Connor Place","address":"Infirmary Road","position":{"lat":"53.35155651","lng":"-6.297700386"}},{"number":"1926","name":"Phoenix Park Gate","address":"","position":{"lat":"53.35089646","lng":"-6.296795356"}},{"number":"1927","name":"North Circular Road","address":"North Circular Road","position":{"lat":"53.35399467","lng":"-6.295349826"}},{"number":"1928","name":"O'Devaney Gardens","address":"North Circular Road","position":{"lat":"53.35368499","lng":"-6.29569268"}},{"number":"1929","name":"Oxmantown Road","address":"North Circular Road","position":{"lat":"53.35471303","lng":"-6.294044214"}},{"number":"1930","name":"Marlborough Road","address":"North Circular Road","position":{"lat":"53.35526074","lng":"-6.293376346"}},{"number":"1931","name":"O'Devaney Gardens","address":"O'Devaney Gardens","position":{"lat":"53.35160347","lng":"-6.294694164"}},{"number":"1932","name":"Stephen's Green Nth","address":"St. Stephen's Green north","position":{"lat":"53.33911515","lng":"-6.257724096"}},{"number":"1934","name":"Morehampton Terrace","address":"Morehampton Road","position":{"lat":"53.32547924","lng":"-6.241735821"}},{"number":"1935","name":"Royal Hospital","address":"Morehampton Road","position":{"lat":"53.32697216","lng":"-6.243626143"}},{"number":"1939","name":"Embassy of Malta","address":"","position":{"lat":"53.33514672","lng":"-6.256174036"}},{"number":"1940","name":"Clonliffe Gardens","address":"Clonliffe Road","position":{"lat":"53.36189727","lng":"-6.247103226"}},{"number":"1941","name":"Clonliffe Road","address":"Clonliffe Road","position":{"lat":"53.3621294","lng":"-6.248220615"}},{"number":"1942","name":"Clonliffe Road","address":"Clonliffe Road","position":{"lat":"53.36250497","lng":"-6.251766296"}},{"number":"1943","name":"Clonliffe Road","address":"Clonliffe Road","position":{"lat":"53.36313679","lng":"-6.256248199"}},{"number":"1944","name":"Clonliffe Road","address":"Clonliffe Road","position":{"lat":"53.36332742","lng":"-6.256991713"}},{"number":"1945","name":"Clonliffe Avenue","address":"Ballybough Road","position":{"lat":"53.36070569","lng":"-6.243696374"}},{"number":"1946","name":"Ballybough Road","address":"Ballybough Road","position":{"lat":"53.36060135","lng":"-6.243325039"}},{"number":"1947","name":"Summerhill Parade","address":"Summerhill Parade","position":{"lat":"53.35751559","lng":"-6.248635233"}},{"number":"1948","name":"Summerhill Parade","address":"Summerhill Parade","position":{"lat":"53.35750468","lng":"-6.249116447"}},{"number":"1949","name":"Charleville Avenue","address":"Ballybough Road","position":{"lat":"53.35917274","lng":"-6.245802758"}},{"number":"1950","name":"Ballybough Road","address":"Ballybough Road","position":{"lat":"53.35903608","lng":"-6.246289155"}},{"number":"1956","name":"British Embassy","address":"","position":{"lat":"53.32571981","lng":"-6.223395297"}},{"number":"1957","name":"Shrewsbury Park","address":"Merrion Road","position":{"lat":"53.32399511","lng":"-6.220449503"}},{"number":"1962","name":"Shrewsbury Road","address":"","position":{"lat":"53.32472778","lng":"-6.221965295"}},{"number":"1963","name":"British Embassy","address":"","position":{"lat":"53.32599756","lng":"-6.223939234"}},{"number":"1970","name":"The Meadows","address":"Howth Road","position":{"lat":"53.37565052","lng":"-6.193556253"}},{"number":"1971","name":"The Meadows","address":"Howth Road","position":{"lat":"53.37571862","lng":"-6.193899072"}},{"number":"1972","name":"Castle Grove","address":"Howth Road","position":{"lat":"53.36983755","lng":"-6.208620256"}},{"number":"1973","name":"Castle Grove","address":"Howth Road","position":{"lat":"53.36926408","lng":"-6.209936744"}},{"number":"1974","name":"The Demense","address":"Howth Road","position":{"lat":"53.37249985","lng":"-6.202166148"}},{"number":"1975","name":"The Demesne","address":"Howth Road","position":{"lat":"53.37321702","lng":"-6.201444579"}},{"number":"1980","name":"St Lawrence Road","address":"Howth Road","position":{"lat":"53.36801988","lng":"-6.21267888"}},{"number":"1981","name":"Summerhill","address":"Summerhill Road","position":{"lat":"53.35594736","lng":"-6.252019711"}},{"number":"1982","name":"Rutland Street","address":"Summerhill Road","position":{"lat":"53.35525754","lng":"-6.254015974"}},{"number":"1983","name":"Jones's Road","address":"Clonliffe Road","position":{"lat":"53.36252157","lng":"-6.251059408"}},{"number":"1984","name":"Distillery Road","address":"Clonliffe Road","position":{"lat":"53.36217001","lng":"-6.249150534"}},{"number":"1985","name":"Fairview","address":"Marino Mart","position":{"lat":"53.36328895","lng":"-6.235415974"}},{"number":"1986","name":"Marino College","address":"Marino Mart","position":{"lat":"53.3642686","lng":"-6.231769161"}},{"number":"1987","name":"Copeland Grove","address":"Howth Road","position":{"lat":"53.36686957","lng":"-6.221112278"}},{"number":"1988","name":"North Strand Road","address":"North Strand Road","position":{"lat":"53.35572884","lng":"-6.245703839"}},{"number":"1989","name":"Nth Strand Health Ctr","address":"North Strand R0Ad","position":{"lat":"53.3556664","lng":"-6.24573645"}},{"number":"1997","name":"Ventry Park","address":"Ventry Park","position":{"lat":"53.3703319","lng":"-6.304601169"}},{"number":"1998","name":"Ventry Park","address":"Ventry Park","position":{"lat":"53.37025769","lng":"-6.304438805"}},{"number":"2000","name":"Home Farm Road","address":"Home Farm Road","position":{"lat":"53.37350361","lng":"-6.252803752"}},{"number":"2001","name":"Achill Road","address":"Home Farm Road","position":{"lat":"53.37386122","lng":"-6.25390131"}},{"number":"2002","name":"Skylon Hotel","address":"Upper Drumcondra Road","position":{"lat":"53.37301741","lng":"-6.252132303"}},{"number":"2003","name":"Wellpark Avenue","address":"Upper Drumcondra Road","position":{"lat":"53.37366153","lng":"-6.25192557"}},{"number":"2004","name":"St Patrick's College","address":"Upper Drumcondra Road","position":{"lat":"53.36999011","lng":"-6.254089717"}},{"number":"2005","name":"Botanic Avenue","address":"Lower Drumcondra Road","position":{"lat":"53.36715074","lng":"-6.255377969"}},{"number":"2006","name":"Ferguson Road","address":"Home Farm Road","position":{"lat":"53.37422828","lng":"-6.256261004"}},{"number":"2007","name":"Corpus Christi NS","address":"Home Farm Road","position":{"lat":"53.37465028","lng":"-6.257461189"}},{"number":"2011","name":"Walsh Road","address":"Home Farm Road","position":{"lat":"53.37513316","lng":"-6.260372348"}},{"number":"2012","name":"Home Farm Road","address":"Home Farm Road","position":{"lat":"53.37555927","lng":"-6.261858006"}},{"number":"2013","name":"Dorset Street Upper","address":"Upper Dorset Street","position":{"lat":"53.35679465","lng":"-6.264499747"}},{"number":"2014","name":"Upper Dorset Street","address":"Upper Dorset Street","position":{"lat":"53.35680494","lng":"-6.264589471"}},{"number":"2015","name":"St Joseph's Parade","address":"Upper Dorset Street","position":{"lat":"53.35695831","lng":"-6.26462831"}},{"number":"2016","name":"Synnott Place","address":"Lower Dorset Street","position":{"lat":"53.35875758","lng":"-6.262271495"}},{"number":"2017","name":"Dorset Street Lower","address":"Lower Dorset Street","position":{"lat":"53.35853124","lng":"-6.262776505"}},{"number":"2018","name":"Dorset Street Lower","address":"Lower Dorset Street","position":{"lat":"53.36003185","lng":"-6.260897458"}},{"number":"2019","name":"Innisfallen Parade","address":"Lower Dorset Street","position":{"lat":"53.36008859","lng":"-6.26109047"}},{"number":"2020","name":"Parnell Square West","address":"Parnell Square West","position":{"lat":"53.35339211","lng":"-6.265389124"}},{"number":"2021","name":"Parnell Square West","address":"Parnell Square West","position":{"lat":"53.35327227","lng":"-6.265183676"}},{"number":"2022","name":"Parnell Square West","address":"Parnell Square West","position":{"lat":"53.35224436","lng":"-6.263723219"}},{"number":"2023","name":"Parnell Square West","address":"Parnell Square West","position":{"lat":"53.35274934","lng":"-6.264453804"}},{"number":"2024","name":"Rathlin Road","address":"Home Farm Road","position":{"lat":"53.37589947","lng":"-6.263617736"}},{"number":"2025","name":"St Patrick's College","address":"Upper Drumcondra Road","position":{"lat":"53.3701012","lng":"-6.254310599"}},{"number":"2026","name":"Nephin Road Park","address":"Nephin Road","position":{"lat":"53.36639156","lng":"-6.305614183"}},{"number":"2027","name":"Drumcondra Rail Stn","address":"Lower Drumcondra Road","position":{"lat":"53.36291708","lng":"-6.258435917"}},{"number":"2029","name":"Leighlin Road","address":"Clonmacnoise Road","position":{"lat":"53.32362482","lng":"-6.29981836"}},{"number":"2030","name":"Griffith College","address":"South Circular Road","position":{"lat":"53.3318004","lng":"-6.278262272"}},{"number":"2031","name":"Aughavanagh Road","address":"Clogher Road","position":{"lat":"53.32820052","lng":"-6.28667972"}},{"number":"2032","name":"Aughavanagh Road","address":"Clogher Road","position":{"lat":"53.32804055","lng":"-6.286806239"}},{"number":"2033","name":"Rutland Avenue","address":"Clogher Road","position":{"lat":"53.32715407","lng":"-6.289544133"}},{"number":"2034","name":"Rutland Avenue","address":"Clogher Road","position":{"lat":"53.32677327","lng":"-6.291195788"}},{"number":"2035","name":"St Anne's Road S","address":"South Circular Road","position":{"lat":"53.33184593","lng":"-6.285167265"}},{"number":"2036","name":"Dufferin Avenue","address":"South Circular Road","position":{"lat":"53.3313562","lng":"-6.282364154"}},{"number":"2037","name":"Rialto Church","address":"South Circular Road","position":{"lat":"53.335641","lng":"-6.295976799"}},{"number":"2038","name":"St Andrews Centre","address":"South Circular Road","position":{"lat":"53.33512375","lng":"-6.293745026"}},{"number":"2039","name":"Kildare Road","address":"Kildare Road","position":{"lat":"53.3250914","lng":"-6.3138567"}},{"number":"2040","name":"Crumlin Pool","address":"Kildare Road","position":{"lat":"53.32490027","lng":"-6.314960137"}},{"number":"2041","name":"Clonard Road","address":"Kildare Road","position":{"lat":"53.32516688","lng":"-6.307128155"}},{"number":"2042","name":"Monasterboice Road","address":"Kildare Road","position":{"lat":"53.3251428","lng":"-6.305432703"}},{"number":"2043","name":"St Bernadette's","address":"Sundrive Road","position":{"lat":"53.32473396","lng":"-6.296291403"}},{"number":"2044","name":"Pearse College","address":"Clogher Road","position":{"lat":"53.32598793","lng":"-6.295986219"}},{"number":"2045","name":"Pearse College","address":"Clogher Road","position":{"lat":"53.32608823","lng":"-6.295456775"}},{"number":"2046","name":"Ferns Road","address":"Clonmacnoise Road","position":{"lat":"53.32374306","lng":"-6.296766231"}},{"number":"2078","name":"Harold's Cross Park","address":"Harold's Cross Road","position":{"lat":"53.32562461","lng":"-6.278195704"}},{"number":"2079","name":"Victoria Street","address":"South Circular Road","position":{"lat":"53.33232276","lng":"-6.269637622"}},{"number":"2087","name":"Synge Street","address":"Harrington Street","position":{"lat":"53.33247838","lng":"-6.26611779"}},{"number":"2095","name":"S Great George's St","address":"South Gate George's Street","position":{"lat":"53.3423418","lng":"-6.264501082"}},{"number":"2096","name":"S Great George's St","address":"South Gate George's Street","position":{"lat":"53.34180872","lng":"-6.264928229"}},{"number":"2097","name":"Fade Street","address":"","position":{"lat":"53.3424601","lng":"-6.264601408"}},{"number":"2098","name":"Redmond's Hill","address":"Redmond's Hill","position":{"lat":"53.33812835","lng":"-6.265873557"}},{"number":"2099","name":"Redmond's Hill","address":"","position":{"lat":"53.33824578","lng":"-6.265913843"}},{"number":"2100","name":"Camden Street Lower","address":"Upper Camden Street","position":{"lat":"53.33437841","lng":"-6.265124754"}},{"number":"2101","name":"Stop No. 7580","address":"","position":{"lat":"53.33415362","lng":"-6.265118862"}},{"number":"2102","name":"Harrington Street","address":"Harrington Street","position":{"lat":"53.33249965","lng":"-6.265726535"}},{"number":"2111","name":"Waterloo Road","address":"Waterloo Road","position":{"lat":"53.33249786","lng":"-6.243489197"}},{"number":"2112","name":"Flemmings Place","address":"Waterloo Road","position":{"lat":"53.33263636","lng":"-6.243738764"}},{"number":"2125","name":"Gardiner Street Lwr","address":"Lower Gardiner Street","position":{"lat":"53.35031769","lng":"-6.254262949"}},{"number":"2126","name":"Railway Street","address":"Lower Gardiner Street","position":{"lat":"53.35174335","lng":"-6.255256217"}},{"number":"2127","name":"Gardiner Street Lwr","address":"Lower Gardiner Street","position":{"lat":"53.35370557","lng":"-6.256678323"}},{"number":"2128","name":"Stop No. 7605","address":"","position":{"lat":"53.35273037","lng":"-6.255756701"}},{"number":"2139","name":"Rathmines","address":"Lower Rathmines Road","position":{"lat":"53.32498019","lng":"-6.265355983"}},{"number":"2165","name":"Oak Road","address":"Collins Avenue","position":{"lat":"53.37638993","lng":"-6.221241539"}},{"number":"2166","name":"Oak Road","address":"Collins Avenue","position":{"lat":"53.37636702","lng":"-6.221513046"}},{"number":"2170","name":"Gardiner Street Upr","address":"Upper Gardiner Street","position":{"lat":"53.35853238","lng":"-6.261003595"}},{"number":"2196","name":"Botanic Avenue","address":"Lower Drumcondra Road","position":{"lat":"53.36714373","lng":"-6.255513501"}},{"number":"2197","name":"Dargle Road","address":"Lower Drumcondra Road","position":{"lat":"53.36585593","lng":"-6.25595682"}},{"number":"2198","name":"Ventry Drive","address":"Ventry Drive","position":{"lat":"53.36896993","lng":"-6.304264536"}},{"number":"2199","name":"Ventry Drive","address":"Ventry Drive","position":{"lat":"53.36907751","lng":"-6.304245234"}},{"number":"2200","name":"Faussagh Avenue","address":"Faussagh Avenue","position":{"lat":"53.36739156","lng":"-6.300720678"}},{"number":"2201","name":"Dingle Road","address":"Faussagh Avenue","position":{"lat":"53.36725465","lng":"-6.298051276"}},{"number":"2202","name":"Broombridge Road","address":"Faussagh Avenue","position":{"lat":"53.36727499","lng":"-6.300740345"}},{"number":"2203","name":"Fionnbarra GAA","address":"Faussagh Avenue","position":{"lat":"53.36654723","lng":"-6.291317319"}},{"number":"2204","name":"Faussaugh Avenue","address":"Faussagh Avenue","position":{"lat":"53.36679244","lng":"-6.292750108"}},{"number":"2206","name":"Ballymun Road","address":"Ballymun Road","position":{"lat":"53.37629825","lng":"-6.270034572"}},{"number":"2207","name":"Phibsborough","address":"North Circular Road","position":{"lat":"53.36087575","lng":"-6.271966627"}},{"number":"2208","name":"Phibsborough","address":"North Circular Road","position":{"lat":"53.3607978","lng":"-6.27154908"}},{"number":"2209","name":"Mater Hospital","address":"North Circular Road","position":{"lat":"53.36027925","lng":"-6.265545096"}},{"number":"2210","name":"Mater Hospital","address":"North Circular Road","position":{"lat":"53.36015371","lng":"-6.26556522"}},{"number":"2211","name":"Leo Street","address":"North Circular Road","position":{"lat":"53.36016256","lng":"-6.26370178"}},{"number":"2212","name":"Dalymount","address":"Cabra Road","position":{"lat":"53.36081623","lng":"-6.276551675"}},{"number":"2213","name":"Phibsborough PO","address":"Cabra Road","position":{"lat":"53.36086297","lng":"-6.276053961"}},{"number":"2214","name":"Dalymount","address":"Cabra Road","position":{"lat":"53.36075973","lng":"-6.276373655"}},{"number":"2215","name":"Quarry Road","address":"Quarry Road","position":{"lat":"53.36216305","lng":"-6.290200571"}},{"number":"2216","name":"Quarry Road","address":"Quarry Road","position":{"lat":"53.36223706","lng":"-6.290347862"}},{"number":"2217","name":"Quarry Road","address":"Cabra Road","position":{"lat":"53.36130918","lng":"-6.289573652"}},{"number":"2218","name":"Quarry Road","address":"Cabra Road","position":{"lat":"53.36127922","lng":"-6.2893645"}},{"number":"2219","name":"Annamoe Terrace","address":"Cabra Road","position":{"lat":"53.36114922","lng":"-6.284065835"}},{"number":"2220","name":"Annamoe Terrace","address":"Cabra Road","position":{"lat":"53.36101801","lng":"-6.284942563"}},{"number":"2221","name":"Churchview Home","address":"Cabra Road","position":{"lat":"53.36102125","lng":"-6.280795505"}},{"number":"2222","name":"Churchview Home","address":"Cabra Road","position":{"lat":"53.36094625","lng":"-6.281204202"}},{"number":"2223","name":"North Circular Road","address":"North Circular Road","position":{"lat":"53.36001449","lng":"-6.262791289"}},{"number":"2224","name":"Mountjoy","address":"North Circular Road","position":{"lat":"53.36041161","lng":"-6.26846958"}},{"number":"2225","name":"Drumcondra Rail Stn","address":"Lower Drumcondra Road","position":{"lat":"53.36391612","lng":"-6.257298256"}},{"number":"2226","name":"Fitzroy Avenue","address":"Lower Drumcondra Road","position":{"lat":"53.36232904","lng":"-6.258790465"}},{"number":"2227","name":"Quarry Road","address":"Quarry Road","position":{"lat":"53.36434556","lng":"-6.288835941"}},{"number":"2228","name":"Faussaugh Ave Church","address":"Faussagh Avenue","position":{"lat":"53.36720024","lng":"-6.295498814"}},{"number":"2229","name":"Faussaugh Ave Church","address":"Faussagh Avenue","position":{"lat":"53.36708858","lng":"-6.295232782"}},{"number":"2230","name":"Church","address":"Fassaugh Avenue","position":{"lat":"53.3672285","lng":"-6.296218994"}},{"number":"2233","name":"Harts Corner","address":"Finglas Road","position":{"lat":"53.36684005","lng":"-6.272326309"}},{"number":"2236","name":"Parnell Square East","address":"Parnell Square East","position":{"lat":"53.35368976","lng":"-6.262372523"}},{"number":"2237","name":"Dublin Broadstone","address":"Broadstone","position":{"lat":"53.35448459","lng":"-6.275650415"}},{"number":"2238","name":"Leeson St Lower","address":"","position":{"lat":"53.33545345","lng":"-6.256251618"}},{"number":"2239","name":"Leeson St Lower","address":"","position":{"lat":"53.33514474","lng":"-6.256038972"}},{"number":"2240","name":"Baggot St Lower","address":"Fitzwilliam Street Upper","position":{"lat":"53.33643766","lng":"-6.24858307"}},{"number":"2241","name":"Parnell Square West","address":"Parnell Square West","position":{"lat":"53.35230855","lng":"-6.263810742"}},{"number":"2242","name":"Crumlin Hospital","address":"Drimnagh Road","position":{"lat":"53.32536852","lng":"-6.317568869"}},{"number":"2243","name":"Dublin Beresford Place","address":"Abbey Street Lower","position":{"lat":"53.34890195","lng":"-6.255176994"}},{"number":"2244","name":"Dublin Beresford Place","address":"Old Abbey Street","position":{"lat":"53.34874048","lng":"-6.25519861"}},{"number":"2246","name":"George's Quay","address":"","position":{"lat":"53.34736731","lng":"-6.252265639"}},{"number":"2247","name":"George's Quay","address":"","position":{"lat":"53.34737585","lng":"-6.252235249"}},{"number":"2248","name":"National Museum","address":"","position":{"lat":"53.34029603","lng":"-6.255498361"}},{"number":"2249","name":"Kildare Street","address":"Kildare Street","position":{"lat":"53.34021584","lng":"-6.255546688"}},{"number":"2250","name":"Kildare Street","address":"Kildare Street","position":{"lat":"53.34004758","lng":"-6.255718752"}},{"number":"2251","name":"Dublin Kildare Street","address":"Kildare Street","position":{"lat":"53.34053746","lng":"-6.255413415"}},{"number":"2252","name":"Wellington Quay","address":"Bachelors Walk","position":{"lat":"53.34586418","lng":"-6.263817293"}},{"number":"2253","name":"The Village","address":"Upper Drumcondra Road","position":{"lat":"53.37519048","lng":"-6.250765745"}},{"number":"2254","name":"Glasnevin Avenue","address":"Great Western Way","position":{"lat":"53.35507686","lng":"-6.269376923"}},{"number":"2255","name":"Mountjoy Street","address":"Mountjoy Street","position":{"lat":"53.35639721","lng":"-6.268076469"}},{"number":"2256","name":"Western Way","address":"Great Western Way","position":{"lat":"53.35504065","lng":"-6.269979311"}},{"number":"2257","name":"St Pappin's Road","address":"Phibsboro Road","position":{"lat":"53.35512573","lng":"-6.273371074"}},{"number":"2258","name":"Broadstone","address":"Phibsboro Road","position":{"lat":"53.3568839","lng":"-6.273750704"}},{"number":"2259","name":"Lindsay Grove","address":"Prospect Road","position":{"lat":"53.36535535","lng":"-6.271589977"}},{"number":"2260","name":"Munster Street","address":"Phibsboro Road","position":{"lat":"53.36362181","lng":"-6.272291246"}},{"number":"2261","name":"Phibsborough Road","address":"Phibsboro Road","position":{"lat":"53.36273426","lng":"-6.272447365"}},{"number":"2284","name":"Lombard Street West","address":"Lwr. Clanbrassil Street","position":{"lat":"53.33425082","lng":"-6.274920178"}},{"number":"2285","name":"Clanbrassil Street","address":"Lwr. Clanbrassil Street","position":{"lat":"53.33289128","lng":"-6.275380456"}},{"number":"2286","name":"Kevin Street","address":"New Street South","position":{"lat":"53.33817331","lng":"-6.272689493"}},{"number":"2287","name":"Long Lane","address":"New Street South","position":{"lat":"53.33658443","lng":"-6.272828791"}},{"number":"2288","name":"New Street South","address":"New Street South","position":{"lat":"53.33658044","lng":"-6.273174332"}},{"number":"2289","name":"New Street South","address":"New Street South","position":{"lat":"53.33790737","lng":"-6.272324817"}},{"number":"2290","name":"New Street South","address":"New Street South","position":{"lat":"53.33815556","lng":"-6.272705228"}},{"number":"2291","name":"St Johns Road West","address":"","position":{"lat":"53.34565876","lng":"-6.296959098"}},{"number":"2292","name":"Castleforbes Business Centre","address":"Upper Sherriff Street","position":{"lat":"53.35006685","lng":"-6.232342051"}},{"number":"2293","name":"East Wall Road","address":"East Wall Road","position":{"lat":"53.3528641","lng":"-6.225811747"}},{"number":"2300","name":"Inchicore Road","address":"Inchicore Road","position":{"lat":"53.34208743","lng":"-6.310017253"}},{"number":"2301","name":"Camac Court","address":"Inchicore Road","position":{"lat":"53.34196601","lng":"-6.315413635"}},{"number":"2311","name":"Chapelizod Bypass","address":"Con Colbert Road","position":{"lat":"53.34327186","lng":"-6.310511085"}},{"number":"2312","name":"Chapelizod Bypass","address":"Con Colbert Road","position":{"lat":"53.34343711","lng":"-6.311390663"}},{"number":"2316","name":"Church Road","address":"Church Road","position":{"lat":"53.3520557","lng":"-6.233116005"}},{"number":"2345","name":"Parnell Street","address":"","position":{"lat":"53.35087321","lng":"-6.265236043"}},{"number":"2346","name":"Pembroke Street Upper","address":"","position":{"lat":"53.33721828","lng":"-6.251554441"}},{"number":"2347","name":"George's Quay","address":"","position":{"lat":"53.34737215","lng":"-6.252595889"}},{"number":"2353","name":"St Stephen's Green","address":"","position":{"lat":"53.33876678","lng":"-6.256026324"}},{"number":"2354","name":"The Shelborne Hotel","address":"","position":{"lat":"53.338829","lng":"-6.255978732"}},{"number":"2358","name":"Abbey Street Lower","address":"","position":{"lat":"53.34842241","lng":"-6.259267196"}},{"number":"2359","name":"Merrion Street Upper","address":"","position":{"lat":"53.33850771","lng":"-6.253063481"}},{"number":"2360","name":"Mespil Road","address":"","position":{"lat":"53.33354351","lng":"-6.246749642"}},{"number":"2361","name":"Jurys Hotel","address":"","position":{"lat":"53.34812783","lng":"-6.24712751"}},{"number":"2362","name":"Custom House Quay","address":"","position":{"lat":"53.34811251","lng":"-6.247308386"}},{"number":"2363","name":"North Wall Quay","address":"","position":{"lat":"53.34796482","lng":"-6.247044074"}},{"number":"2364","name":"Custom House Quay","address":"","position":{"lat":"53.34802946","lng":"-6.247161587"}},{"number":"2365","name":"Finglas Road","address":"","position":{"lat":"53.36676928","lng":"-6.272404309"}},{"number":"2366","name":"The Gresham Hotel","address":"","position":{"lat":"53.35167196","lng":"-6.260832245"}},{"number":"2367","name":"The Gresham Hotel","address":"","position":{"lat":"53.35153436","lng":"-6.261258458"}},{"number":"2368","name":"O'Connell Street","address":"","position":{"lat":"53.35176157","lng":"-6.260813575"}},{"number":"2369","name":"St Patricks Close","address":"","position":{"lat":"53.33934376","lng":"-6.272206678"}},{"number":"2370","name":"O'Connell Street","address":"","position":{"lat":"53.35102915","lng":"-6.260512919"}},{"number":"2371","name":"Inchicore Road","address":"","position":{"lat":"53.34213256","lng":"-6.310030486"}},{"number":"2372","name":"St Patrick's College","address":"","position":{"lat":"53.36998113","lng":"-6.254090084"}},{"number":"2373","name":"St Patrick's College","address":"","position":{"lat":"53.37001137","lng":"-6.254314272"}},{"number":"2374","name":"St Patrick's College","address":"","position":{"lat":"53.37171235","lng":"-6.253237769"}},{"number":"2375","name":"St Patrick's College","address":"","position":{"lat":"53.37157673","lng":"-6.253183204"}},{"number":"2376","name":"Stop No. 4967","address":"St. Stephen's Green North","position":{"lat":"53.33912743","lng":"-6.257948858"}},{"number":"2377","name":"Stop No. 355141","address":"","position":{"lat":"53.33942517","lng":"-6.258642546"}},{"number":"2378","name":"Stephen's Green Nth","address":"","position":{"lat":"53.33930686","lng":"-6.257926526"}},{"number":"2379","name":"Sybil Hill Avenue","address":"All Saints Road","position":{"lat":"53.37540286","lng":"-6.185525483"}},{"number":"2380","name":"Sybil Hill Avenue","address":"All Saints Road","position":{"lat":"53.37523744","lng":"-6.185878213"}},{"number":"2381","name":"The Point","address":"","position":{"lat":"53.34836912","lng":"-6.22695976"}},{"number":"2382","name":"The Point","address":"","position":{"lat":"53.34804886","lng":"-6.227183341"}},{"number":"2383","name":"The Point","address":"","position":{"lat":"53.34802169","lng":"-6.227169447"}},{"number":"2384","name":"The Point","address":"","position":{"lat":"53.348094","lng":"-6.227196488"}},{"number":"2385","name":"3Arena","address":"","position":{"lat":"53.34837877","lng":"-6.227004422"}},{"number":"2386","name":"Leeson St Upper","address":"","position":{"lat":"53.32881077","lng":"-6.247634377"}},{"number":"2387","name":"Leinster Street South","address":"","position":{"lat":"53.34210699","lng":"-6.253952614"}},{"number":"2388","name":"Stop No. 7561","address":"","position":{"lat":"53.34660122","lng":"-6.253964209"}},{"number":"2389","name":"Beresford Lane","address":"","position":{"lat":"53.34986372","lng":"-6.253951034"}},{"number":"2390","name":"Stop No. 7595","address":"","position":{"lat":"53.35203252","lng":"-6.263371302"}},{"number":"2391","name":"Patrick Street","address":"","position":{"lat":"53.34203028","lng":"-6.272143108"}},{"number":"2395","name":"Suffolk Street","address":"","position":{"lat":"53.34337934","lng":"-6.259833108"}},{"number":"2396","name":"Ulster Bank/Tourist Office","address":"","position":{"lat":"53.34360303","lng":"-6.260379702"}},{"number":"2397","name":"Suffolk Street","address":"","position":{"lat":"53.34364027","lng":"-6.2604683"}},{"number":"2398","name":"Suffolk Street","address":"","position":{"lat":"53.34360215","lng":"-6.260319661"}},{"number":"2399","name":"Suffolk Street","address":"","position":{"lat":"53.3435476","lng":"-6.260276826"}},{"number":"2401","name":"Kildare Street","address":"Kildare Street","position":{"lat":"53.34012645","lng":"-6.255580372"}},{"number":"2403","name":"Buckingham St Lower","address":"","position":{"lat":"53.35285814","lng":"-6.248525759"}},{"number":"2405","name":"Darmodys Cross","address":"","position":{"lat":"53.33645452","lng":"-6.242395563"}},{"number":"2406","name":"Dublin Castle","address":"","position":{"lat":"53.34369055","lng":"-6.267630337"}},{"number":"2407","name":"Jacobs Factory","address":"","position":{"lat":"53.33842858","lng":"-6.267978798"}},{"number":"2408","name":"Trinity","address":"","position":{"lat":"53.34548745","lng":"-6.25770457"}},{"number":"2409","name":"Stop No. 5191","address":"","position":{"lat":"53.34551264","lng":"-6.257583385"}},{"number":"2410","name":"Trinity College","address":"","position":{"lat":"53.34525609","lng":"-6.258480005"}},{"number":"2411","name":"College Street","address":"","position":{"lat":"53.34561145","lng":"-6.256963547"}},{"number":"2412","name":"Trinity College","address":"","position":{"lat":"53.34369353","lng":"-6.259189512"}},{"number":"2415","name":"Bus�ras","address":"","position":{"lat":"53.34958077","lng":"-6.251814575"}},{"number":"2416","name":"Bus�ras","address":"","position":{"lat":"53.35006518","lng":"-6.251749688"}},{"number":"2417","name":"Bus�ras","address":"","position":{"lat":"53.34948023","lng":"-6.252314386"}},{"number":"2418","name":"Bus�ras","address":"","position":{"lat":"53.34976353","lng":"-6.252633262"}},{"number":"2421","name":"Monck Place","address":"Phibsboro Road","position":{"lat":"53.35895263","lng":"-6.273231373"}},{"number":"2423","name":"Seafield Road Junc","address":"Seapark Road","position":{"lat":"53.3638374","lng":"-6.18804558"}},{"number":"2424","name":"Heuston Station","address":"","position":{"lat":"53.34664067","lng":"-6.292083514"}},{"number":"2425","name":"Heuston Station","address":"","position":{"lat":"53.34588407","lng":"-6.29385605"}},{"number":"2426","name":"Stop No. 4425","address":"","position":{"lat":"53.34639662","lng":"-6.29198813"}},{"number":"2427","name":"Heuston Station","address":"","position":{"lat":"53.3461644","lng":"-6.292718367"}},{"number":"2428","name":"Heuston Station","address":"","position":{"lat":"53.34609576","lng":"-6.292946407"}},{"number":"2429","name":"Heuston Station","address":"","position":{"lat":"53.34585819","lng":"-6.293932182"}},{"number":"2430","name":"D4 Berkeley Hotel","address":"","position":{"lat":"53.33330788","lng":"-6.233215371"}},{"number":"2431","name":"D4 Hotels","address":"","position":{"lat":"53.33325144","lng":"-6.233653151"}},{"number":"2432","name":"D4 Hotels","address":"","position":{"lat":"53.33151093","lng":"-6.234475814"}},{"number":"2433","name":"D4 Hotel/Berkeley Court","address":"","position":{"lat":"53.33154121","lng":"-6.234699786"}},{"number":"2434","name":"Pembroke Road","address":"","position":{"lat":"53.33141844","lng":"-6.234299456"}},{"number":"2435","name":"Pembroke Road","address":"","position":{"lat":"53.33090021","lng":"-6.233900453"}},{"number":"2438","name":"Burlington Road","address":"","position":{"lat":"53.33240794","lng":"-6.246540962"}},{"number":"2439","name":"Mespil Hotel","address":"","position":{"lat":"53.33299954","lng":"-6.24704223"}},{"number":"2440","name":"Merrion Sq West","address":"Merrion Square West","position":{"lat":"53.34016026","lng":"-6.251749447"}},{"number":"2441","name":"Merrion Square West","address":"","position":{"lat":"53.34092133","lng":"-6.250937369"}},{"number":"2442","name":"Merrion Square West","address":"","position":{"lat":"53.34079953","lng":"-6.251212679"}},{"number":"2443","name":"Merrion Sq West","address":"","position":{"lat":"53.34079491","lng":"-6.250897489"}},{"number":"2444","name":"Merrion Sq South","address":"","position":{"lat":"53.33951302","lng":"-6.251130168"}},{"number":"2445","name":"Merrion Sq South","address":"","position":{"lat":"53.33947247","lng":"-6.250816458"}},{"number":"2446","name":"Merrion Sq South","address":"","position":{"lat":"53.3392985","lng":"-6.250598316"}},{"number":"2447","name":"Merrion Sq South","address":"","position":{"lat":"53.33909075","lng":"-6.249916017"}},{"number":"2448","name":"Merrion Sq North","address":"","position":{"lat":"53.34097079","lng":"-6.250019239"}},{"number":"2449","name":"Macken Street","address":"","position":{"lat":"53.34402066","lng":"-6.241048018"}},{"number":"2451","name":"Clanwilliam House","address":"","position":{"lat":"53.33812428","lng":"-6.23981903"}},{"number":"2456","name":"Temple Street","address":"Upper Dorset Street","position":{"lat":"53.35798985","lng":"-6.263249251"}},{"number":"2458","name":"Ballsbridge RDS","address":"","position":{"lat":"53.32864037","lng":"-6.229399578"}},{"number":"2459","name":"RDS Ballsbridge","address":"","position":{"lat":"53.3283988","lng":"-6.228869088"}},{"number":"2460","name":"RDS Ballsbridge","address":"","position":{"lat":"53.3283521","lng":"-6.228750912"}},{"number":"2461","name":"RDS Ballsbridge","address":"","position":{"lat":"53.32863992","lng":"-6.229369569"}},{"number":"2469","name":"The Point","address":"","position":{"lat":"53.34689867","lng":"-6.22901848"}},{"number":"2470","name":"3Arena","address":"","position":{"lat":"53.34685108","lng":"-6.228840209"}},{"number":"2471","name":"Bachelors Walk","address":"","position":{"lat":"53.3469985","lng":"-6.261473104"}},{"number":"2474","name":"Westland Row Church","address":"","position":{"lat":"53.3431251","lng":"-6.249825878"}},{"number":"2475","name":"The Green Room","address":"","position":{"lat":"53.34990949","lng":"-6.230215537"}},{"number":"2476","name":"Br an Phoirt Thoir","address":"","position":{"lat":"53.35554538","lng":"-6.230237402"}},{"number":"2479","name":"Ballyboggan Road","address":"","position":{"lat":"53.37523899","lng":"-6.286325064"}},{"number":"2480","name":"Shelbourne Park","address":"","position":{"lat":"53.34193206","lng":"-6.234736119"}},{"number":"2481","name":"Barrow Street","address":"","position":{"lat":"53.34208777","lng":"-6.235540687"}},{"number":"2482","name":"Stop No. 4718","address":"","position":{"lat":"53.35210503","lng":"-6.26341342"}},{"number":"2483","name":"Stop No. 9","address":"","position":{"lat":"53.35296755","lng":"-6.264625205"}},{"number":"2484","name":"George's Quay, Train Station","address":"","position":{"lat":"53.34742544","lng":"-6.25378032"}},{"number":"2485","name":"Stop No. 4681","address":"","position":{"lat":"53.339726","lng":"-6.251556964"}},{"number":"2487","name":"Garda Station","address":"Pearse Street","position":{"lat":"53.34550891","lng":"-6.256712395"}},{"number":"2488","name":"Marino Mart Virtual Stop","address":"","position":{"lat":"53.36389517","lng":"-6.233257197"}},{"number":"2489","name":"O'Connell Street","address":"","position":{"lat":"53.35104755","lng":"-6.260542213"}},{"number":"2490","name":"O'Connell Street","address":"","position":{"lat":"53.35129272","lng":"-6.26071249"}},{"number":"2491","name":"Jurys Hotel","address":"","position":{"lat":"53.34798146","lng":"-6.246953268"}},{"number":"2493","name":"Leeson St Lower","address":"","position":{"lat":"53.33317307","lng":"-6.253972218"}},{"number":"2494","name":"Westland Row","address":"","position":{"lat":"53.34372364","lng":"-6.249576075"}},{"number":"2495","name":"Merrion Sq West","address":"","position":{"lat":"53.34088672","lng":"-6.251028894"}},{"number":"2497","name":"Merrion Sq North","address":"","position":{"lat":"53.34095414","lng":"-6.25011003"}},{"number":"2498","name":"Merrion Road","address":"","position":{"lat":"53.32846547","lng":"-6.22912156"}},{"number":"2499","name":"Merrion Road","address":"","position":{"lat":"53.32835552","lng":"-6.228375428"}},{"number":"2502","name":"National Gallery","address":"","position":{"lat":"53.34190036","lng":"-6.253345301"}},{"number":"2503","name":"National Gallery","address":"","position":{"lat":"53.34195536","lng":"-6.253418146"}},{"number":"2504","name":"Science Gallery","address":"","position":{"lat":"53.34464202","lng":"-6.252136809"}},{"number":"2507","name":"Dame Street","address":"","position":{"lat":"53.34415856","lng":"-6.263345907"}},{"number":"2508","name":"Pearse Street","address":"","position":{"lat":"53.34502175","lng":"-6.252902291"}},{"number":"2509","name":"Grantham Street","address":"","position":{"lat":"53.33369702","lng":"-6.265242503"}},{"number":"2512","name":"Busaras Virtual Stops","address":"","position":{"lat":"53.34900389","lng":"-6.251702994"}},{"number":"2513","name":"Busaras Virtual Stops","address":"","position":{"lat":"53.34961076","lng":"-6.251407777"}},{"number":"2514","name":"Busaras Virtual Stops","address":"","position":{"lat":"53.34959729","lng":"-6.253556352"}},{"number":"2515","name":"Busaras Virtual Stops","address":"","position":{"lat":"53.34926262","lng":"-6.260179284"}},{"number":"2516","name":"Sandymount Virtual Stops","address":"","position":{"lat":"53.33219361","lng":"-6.211519562"}},{"number":"2517","name":"Sandymount Virtual Stops","address":"","position":{"lat":"53.33202767","lng":"-6.211841822"}},{"number":"2518","name":"Sandymount Virtual Stops","address":"","position":{"lat":"53.33183478","lng":"-6.212165206"}},{"number":"2519","name":"Sandymount Virtual Stops","address":"","position":{"lat":"53.331694","lng":"-6.213567484"}},{"number":"2520","name":"Sandymount Virtual Stops","address":"","position":{"lat":"53.33219501","lng":"-6.215213224"}},{"number":"2521","name":"Sandymount Virtual Stops","address":"","position":{"lat":"53.33200368","lng":"-6.215641634"}},{"number":"2522","name":"Virtual Stop 41X","address":"","position":{"lat":"53.35439054","lng":"-6.246990681"}},{"number":"2523","name":"College Street Virtual Stop","address":"","position":{"lat":"53.34541077","lng":"-6.257993071"}},{"number":"2524","name":"College Street Virtual Stop","address":"","position":{"lat":"53.34502845","lng":"-6.25889481"}},{"number":"2526","name":"Dept of Eductation","address":"","position":{"lat":"53.35095467","lng":"-6.258488035"}},{"number":"2527","name":"Sussex Rd Junc","address":"","position":{"lat":"53.33114509","lng":"-6.252358396"}},{"number":"2531","name":"Virtual Stop","address":"","position":{"lat":"53.3337493","lng":"-6.236320373"}},{"number":"2532","name":"Virtual Stop","address":"","position":{"lat":"53.33327644","lng":"-6.235949483"}},{"number":"2533","name":"Virtual Stop","address":"","position":{"lat":"53.33298633","lng":"-6.235781271"}},{"number":"2534","name":"Virtual Stop","address":"","position":{"lat":"53.33266007","lng":"-6.235599539"}},{"number":"2535","name":"Virtual Stop","address":"","position":{"lat":"53.3322422","lng":"-6.23530147"}},{"number":"2536","name":"Virtual Stop","address":"","position":{"lat":"53.33204258","lng":"-6.235174576"}},{"number":"2537","name":"Ardee Road","address":"","position":{"lat":"53.33804275","lng":"-6.278581447"}},{"number":"2538","name":"Poolbeg Street","address":"","position":{"lat":"53.34701245","lng":"-6.25381222"}},{"number":"2539","name":"7 Mtrs South PLL at Spar Shop","address":"","position":{"lat":"53.34413783","lng":"-6.236807764"}},{"number":"2540","name":"Jctn Luby Road Outbound","address":"","position":{"lat":"53.34068478","lng":"-6.312520638"}},{"number":"2542","name":"Virtual Stop 1","address":"","position":{"lat":"53.34743602","lng":"-6.255732537"}},{"number":"2543","name":"Bond Drive","address":"","position":{"lat":"53.35283784","lng":"-6.213809969"}},{"number":"2544","name":"Between Guinness and Heuston","address":"","position":{"lat":"53.34681739","lng":"-6.289988658"}},{"number":"2545","name":"Stop No. 100871","address":"","position":{"lat":"53.35033192","lng":"-6.254007003"}},{"number":"2546","name":"Custom House","address":"","position":{"lat":"53.34837959","lng":"-6.253876506"}},{"number":"2547","name":"Merrion Square","address":"","position":{"lat":"53.34174462","lng":"-6.250077659"}},{"number":"2548","name":"Cardiff Lane","address":"","position":{"lat":"53.34495087","lng":"-6.240739372"}},{"number":"2550","name":"Guild Street","address":"","position":{"lat":"53.34992405","lng":"-6.240925122"}},{"number":"2551","name":"Busaras","address":"","position":{"lat":"53.3497151","lng":"-6.252394904"}},{"number":"2552","name":"Busaras","address":"","position":{"lat":"53.34973237","lng":"-6.251733265"}},{"number":"2553","name":"Busaras","address":"","position":{"lat":"53.34971488","lng":"-6.252379892"}},{"number":"2554","name":"Busaras","address":"","position":{"lat":"53.34967807","lng":"-6.252321313"}},{"number":"2555","name":"Busaras","address":"","position":{"lat":"53.34966711","lng":"-6.252186571"}},{"number":"2556","name":"Busaras","address":"","position":{"lat":"53.34966491","lng":"-6.25203645"}},{"number":"2557","name":"Busaras","address":"","position":{"lat":"53.34968944","lng":"-6.251870213"}},{"number":"2558","name":"Busaras","address":"","position":{"lat":"53.3496967","lng":"-6.252365615"}},{"number":"2559","name":"Busaras","address":"","position":{"lat":"53.34983819","lng":"-6.251593744"}},{"number":"2560","name":"Busaras","address":"","position":{"lat":"53.349769","lng":"-6.252392699"}},{"number":"2561","name":"Busaras","address":"","position":{"lat":"53.34967499","lng":"-6.252111143"}},{"number":"2562","name":"Busaras","address":"","position":{"lat":"53.34966865","lng":"-6.252291657"}},{"number":"2563","name":"Busaras","address":"","position":{"lat":"53.3498027","lng":"-6.251625239"}},{"number":"2564","name":"Busaras","address":"","position":{"lat":"53.34978517","lng":"-6.251655998"}},{"number":"2565","name":"Busaras","address":"","position":{"lat":"53.34975866","lng":"-6.251687126"}},{"number":"2566","name":"Busaras","address":"","position":{"lat":"53.35005029","lng":"-6.251960595"}},{"number":"2567","name":"Busaras","address":"","position":{"lat":"53.3496875","lng":"-6.25235097"}},{"number":"2568","name":"Busaras","address":"","position":{"lat":"53.35006979","lng":"-6.252064946"}},{"number":"2569","name":"Busaras","address":"","position":{"lat":"53.3500904","lng":"-6.252244359"}},{"number":"2570","name":"Busaras","address":"","position":{"lat":"53.35001043","lng":"-6.252307716"}},{"number":"2571","name":"Busaras","address":"","position":{"lat":"53.34995654","lng":"-6.252309921"}},{"number":"2572","name":"Taxi Rank","address":"","position":{"lat":"53.35069957","lng":"-6.250266635"}},{"number":"2573","name":"Taxi Rank","address":"","position":{"lat":"53.35058059","lng":"-6.250121294"}},{"number":"2574","name":"Taxi Rank","address":"","position":{"lat":"53.35175491","lng":"-6.249907946"}},{"number":"2575","name":"Beresford Pl","address":"","position":{"lat":"53.34916678","lng":"-6.253619016"}},{"number":"2576","name":"The O2 Arena Taxi Rank","address":"","position":{"lat":"53.34686786","lng":"-6.229365222"}},{"number":"2577","name":"The Gresham Hotel","address":"","position":{"lat":"53.35159484","lng":"-6.261090756"}},{"number":"2578","name":"Bus�ras","address":"","position":{"lat":"53.35001047","lng":"-6.252923588"}},{"number":"2579","name":"D4 Berkeley","address":"","position":{"lat":"53.33308433","lng":"-6.233900303"}},{"number":"2580","name":"D4 Berkeley","address":"","position":{"lat":"53.33291854","lng":"-6.23423749"}},{"number":"2581","name":"Ballsbridge Towers","address":"","position":{"lat":"53.33237472","lng":"-6.235145848"}},{"number":"2582","name":"Taxi","address":"","position":{"lat":"53.34678579","lng":"-6.294060361"}},{"number":"2583","name":"Heuston Train Station","address":"","position":{"lat":"53.34602037","lng":"-6.295217408"}},{"number":"2584","name":"Taxi","address":"","position":{"lat":"53.34607997","lng":"-6.293728068"}},{"number":"2585","name":"Heuston Train Station","address":"","position":{"lat":"53.34606376","lng":"-6.294479706"}},{"number":"2586","name":"St.John's Road","address":"","position":{"lat":"53.34608598","lng":"-6.294148383"}},{"number":"2587","name":"Saint Jame's Hospital","address":"Jame's Street","position":{"lat":"53.34012584","lng":"-6.295332423"}},{"number":"2588","name":"Tara Street Train Station","address":"","position":{"lat":"53.34753106","lng":"-6.254241636"}},{"number":"2591","name":"Loreto College","address":"Crumlin Road","position":{"lat":"53.33088496","lng":"-6.29651172"}},{"number":"2592","name":"Loreto College","address":"Crumlin Road","position":{"lat":"53.33038621","lng":"-6.29746248"}},{"number":"2593","name":"Crumlin Road","address":"Crumlin Road","position":{"lat":"53.33150429","lng":"-6.294565159"}},{"number":"2600","name":"Eastpoint","address":"","position":{"lat":"53.35821785","lng":"-6.226806296"}},{"number":"2601","name":"Science Museum","address":"","position":{"lat":"53.34420175","lng":"-6.250307451"}},{"number":"2602","name":"Rogerson's Quay","address":"","position":{"lat":"53.34591939","lng":"-6.237545315"}},{"number":"2603","name":"At Luas Stop","address":"","position":{"lat":"53.34734219","lng":"-6.278356973"}},{"number":"2604","name":"Mountjoy Sq North","address":"","position":{"lat":"53.3571703","lng":"-6.258204537"}},{"number":"2605","name":"Clerys","address":"","position":{"lat":"53.3491855","lng":"-6.259821921"}},{"number":"2606","name":"Clayton Hotel","address":"","position":{"lat":"53.34523633","lng":"-6.240592441"}},{"number":"2607","name":"Luke Street","address":"","position":{"lat":"53.34683414","lng":"-6.254525456"}},{"number":"2608","name":"Clare Street","address":"","position":{"lat":"53.34143383","lng":"-6.251562178"}},{"number":"2609","name":"Custom House Quay","address":"","position":{"lat":"53.34828756","lng":"-6.25373006"}},{"number":"2610","name":"Stephen's Green Nth","address":"","position":{"lat":"53.33905622","lng":"-6.257381098"}},{"number":"2611","name":"Gardiner St Lower","address":"","position":{"lat":"53.34875493","lng":"-6.254957686"}},{"number":"2612","name":"O'Connel Street","address":"","position":{"lat":"53.35124999","lng":"-6.260864447"}},{"number":"2613","name":"DBNCL","address":"","position":{"lat":"53.35107625","lng":"-6.260661217"}},{"number":"2614","name":"Mater Hospital","address":"","position":{"lat":"53.36042914","lng":"-6.268438819"}},{"number":"2617","name":"D'Olier Street","address":"","position":{"lat":"53.34669224","lng":"-6.258346364"}},{"number":"2618","name":"Batchelors Walk","address":"","position":{"lat":"53.34726471","lng":"-6.260621134"}},{"number":"2621","name":"Talbot Street","address":"","position":{"lat":"53.35118736","lng":"-6.251658696"}},{"number":"2622","name":"Talbot Street","address":"","position":{"lat":"53.35634236","lng":"-6.258749102"}},{"number":"2623","name":"Dromcondra Station","address":"","position":{"lat":"53.36288969","lng":"-6.258406982"}},{"number":"2626","name":"Whitehall Garda Stn","address":"","position":{"lat":"53.37509277","lng":"-6.2508449"}},{"number":"2627","name":"Dromcondra Station","address":"","position":{"lat":"53.36222256","lng":"-6.25888496"}},{"number":"2628","name":"Fitzwilliam Place","address":"","position":{"lat":"53.33351969","lng":"-6.254318431"}},{"number":"2631","name":"Glasnevin","address":"","position":{"lat":"53.37007281","lng":"-6.278342049"}},{"number":"2632","name":"Whitworth Road","address":"","position":{"lat":"53.36436605","lng":"-6.270307711"}},{"number":"2633","name":"Whitworth Rd Lower","address":"","position":{"lat":"53.36197541","lng":"-6.260427638"}},{"number":"2636","name":"St Peter's Church","address":"","position":{"lat":"53.36076341","lng":"-6.276628931"}},{"number":"2637","name":"St Joseph's School","address":"","position":{"lat":"53.36298005","lng":"-6.302729389"}},{"number":"2640","name":"St Joseph's School","address":"","position":{"lat":"53.36321617","lng":"-6.302900313"}},{"number":"2641","name":"St Peter's Church","address":"","position":{"lat":"53.3608125","lng":"-6.275049321"}},{"number":"2642","name":"Mater Hospital","address":"","position":{"lat":"53.35968281","lng":"-6.26965603"}},{"number":"2643","name":"STPHG","address":"","position":{"lat":"53.34011024","lng":"-6.255701177"}},{"number":"2644","name":"Merrion Row","address":"","position":{"lat":"53.33852531","lng":"-6.254879849"}},{"number":"2645","name":"Baggot Street","address":"","position":{"lat":"53.33355621","lng":"-6.244556855"}},{"number":"2646","name":"Waterloo Road","address":"","position":{"lat":"53.32877393","lng":"-6.245128575"}},{"number":"2648","name":"College Street","address":"","position":{"lat":"53.34378357","lng":"-6.259200862"}},{"number":"2649","name":"Emmet Road","address":"","position":{"lat":"53.34066258","lng":"-6.309683136"}},{"number":"2651","name":"Earlsfort Terrace","address":"","position":{"lat":"53.33586821","lng":"-6.257571148"}},{"number":"2652","name":"Harrington Street","address":"","position":{"lat":"53.33254435","lng":"-6.265709706"}},{"number":"2654","name":"Harrington Street","address":"","position":{"lat":"53.33252233","lng":"-6.267287186"}},{"number":"2655","name":"Earlsfort Terrace","address":"","position":{"lat":"53.33553694","lng":"-6.257659734"}},{"number":"2657","name":"Westmoreland Street","address":"","position":{"lat":"53.3456796","lng":"-6.259168671"}},{"number":"2660","name":"SGHUM","address":"","position":{"lat":"53.33724497","lng":"-6.256448826"}},{"number":"2662","name":"North Wall Quay","address":"","position":{"lat":"53.34790348","lng":"-6.247151735"}},{"number":"2663","name":"Pembroke Street Lwr","address":"","position":{"lat":"53.33734646","lng":"-6.251714382"}},{"number":"2664","name":"Clerys","address":"","position":{"lat":"53.34808358","lng":"-6.247174387"}},{"number":"2665","name":"Convention Centre","address":"","position":{"lat":"53.34752394","lng":"-6.239687128"}}]
